     3.04           OBSERVATION DATA    C                   RINEX VERSION / TYPE
sbf2rin-13.8.0                          20230214 013856 UTC PGM / RUN BY / DATE 
BJTU                                                        MARKER NAME         
TL04                                                        MARKER NUMBER       
BDS                                                         MARKER TYPE         
TLAB                BJTU                                    OBSERVER / AGENCY   
3632368             SEPT MOSAIC-T       4.12.1              REC # / TYPE / VERS 
5168                UNKNOW                                  ANT # / TYPE        
 -2144855.4230  4397605.3280  4078049.8619                  APPROX POSITION XYZ 
        0.0000        0.0000        0.0000                  ANTENNA: DELTA H/E/N
C    8 C1P L1P C5P L5P C2I L2I C6I L6I                      SYS / # / OBS TYPES 
SEPTENTRIO RECEIVERS OUTPUT ALIGNED CARRIER PHASES.         COMMENT             
NO FURTHER PHASE SHIFT APPLIED IN THE RINEX ENCODER.        COMMENT             
C L1P  0.00000                                              SYS / PHASE SHIFT   
C L5P  0.00000                                              SYS / PHASE SHIFT   
C L2I                                                       SYS / PHASE SHIFT   
C L6I                                                       SYS / PHASE SHIFT   
    30.000                                                  INTERVAL            
  2022    12     1     0     5   30.0000000     GPS         TIME OF FIRST OBS   
  2022    12     1    13    12   30.0000000     GPS         TIME OF LAST OBS    
    33                                                      # OF SATELLITES     
                                                            END OF HEADER       
> 2022 12 01 00 05 30.0000000  0 16
C01                                                                  37981216.310 8 197778159.92008  37981216.641 8 160710956.85508
C02                                                                  38535691.811 8 200665460.18408  38535692.245 8 163057124.83008
C03                                                                  37670921.580 8 196162374.03208  37670921.951 8 159397998.46808
C04                                                                  38975994.016 8 202958229.89808  38975994.450 8 164920186.21708
C05                                                                  39896879.157 8 207753520.78508  39896879.685 8 168816753.85908
C06  38478238.057 8 202204506.83708  38478245.029 9 150996898.12509  38478244.375 8 200366314.34208  38478244.696 8 162814045.14008
C07  35886448.334 8 188584557.91608  35886455.295 9 140826158.54109  35886454.571 8 186870185.84008  35886454.925 8 151847334.40408
C09  37247621.691 8 195737573.04808  37247628.623 9 146167695.06809  37247627.914 8 193958172.76208  37247628.291 8 157606904.37808
C10  35896560.750 8 188637701.26508  35896567.732 9 140865842.01509  35896567.048 8 186922844.31008  35896567.397 8 151890124.72408
C11  24594653.865 8 129245776.35908  24594660.778 9  96514731.50009  24594659.914 8 128070848.08208  24594660.290 8 104068056.01708
C18  25180303.613 8 132323388.61208  25180310.573 9  98812947.95209  25180309.973 8 131120481.05008  25180310.234 8 106546132.60908
C19  24802573.233 8 130338402.06208  24802580.190 9  97330651.80109  24802579.429 8 129153539.73808  24802579.841 8 104947831.66908
C25  24348137.004 8 127950323.63708  24348143.966 9  95547346.48209  24348143.284 8 126787171.21408  24348143.656 8 103024963.40608
C26  21767221.611 8 114387520.51008  21767228.526 9  85419279.95909  21767227.907 8 113347667.44808  21767228.259 8  92104265.72408
C27  23713863.155 8 124617189.82108  23713870.046 9  93058319.47609  23713869.396 8 123484340.53208  23713869.730 8 100341142.93308
C32  25239827.532 8 132636188.91508  25239834.465 9  99046531.59409  25239833.739 8 131430436.53508  25239834.131 8 106797997.64708
> 2022 12 01 00 06  0.0000000  0 16
C01                                                                  37981129.216 8 197777706.73308  37981129.650 8 160710588.60608
C02                                                                  38535695.044 8 200665475.09108  38535695.187 8 163057136.94108
C03                                                                  37670669.237 8 196161059.59608  37670669.542 8 159396930.38408
C04                                                                  38975945.566 8 202957977.41208  38975945.915 8 164919981.05508
C05                                                                  39896877.771 8 207753513.26808  39896878.124 8 168816747.75508
C06  38487975.252 8 202255676.35008  38487982.244 9 151035109.12409  38487981.572 8 200417018.67808  38487981.920 8 162855246.56708
C07  35887369.572 8 188589399.42908  35887376.583 9 140829773.96209  35887375.844 8 186874983.33008  35887376.225 8 151851232.76108
C09  37243478.877 8 195715802.48908  37243485.826 9 146151437.83509  37243485.135 8 193936600.12808  37243485.476 8 157589374.84508
C10  35897531.008 8 188642799.72708  35897537.960 9 140869649.31209  35897537.271 8 186927896.43208  35897537.653 8 151894229.98508
C11  24607089.355 8 129311125.31708  24607096.301 9  96563531.05009  24607095.499 8 128135602.99608  24607095.800 8 104120674.69308
C18  25179469.196 8 132319003.75508  25179476.143 9  98809673.54509  25179475.492 8 131116136.05608  25179475.854 8 106542601.94608
C19  24817058.026 8 130414520.08208  24817064.964 9  97387493.18109  24817064.307 8 129228965.78608  24817064.623 8 105009121.52008
C25  24335533.862 8 127884093.48608  24335540.805 9  95497888.90609  24335540.091 8 126721543.16308  24335540.459 8 102971635.24508
C26  21765959.378 8 114380887.44308  21765966.291 9  85414326.69809  21765965.651 8 113341094.66808  21765966.024 8  92098924.80008
C27  23724919.804 8 124675292.90408  23724926.720 9  93101708.14409  23724926.056 8 123541915.42008  23724926.389 8 100387927.24608
C32  25219940.553 8 132531681.99408  25219947.461 9  98968490.71209  25219946.650 8 131326879.67508  25219947.126 8 106713849.21308
> 2022 12 01 00 06 30.0000000  0 16
C01                                                                  37981042.091 8 197777253.09708  37981042.530 8 160710219.98908
C02                                                                  38535697.485 8 200665488.93008  38535697.825 8 163057148.19008
C03                                                                  37670415.902 8 196159740.79808  37670416.273 8 159395858.74908
C04                                                                  38975897.076 8 202957724.86108  38975897.434 8 164919775.83408
C05                                                                  39896876.300 8 207753505.60708  39896876.725 8 168816741.53108
C06  38497725.367 8 202306913.66608  38497732.393 9 151073370.76209  38497731.694 8 200467790.20608  38497732.045 8 162896502.59408
C07  35888290.226 8 188594237.17208  35888297.232 9 140833386.56109  35888296.536 8 186879777.09608  35888296.811 8 151855128.08408
C09  37239355.157 8 195694132.50308  37239362.167 9 146135255.70109  37239361.520 8 193915127.15208  37239361.827 8 157571926.30008
C10  35898521.895 8 188648007.10508  35898528.883 9 140873537.93809  35898528.264 8 186933056.47108  35898528.564 8 151898422.94208
C11  24619577.479 8 129376750.93308  24619584.411 9  96612537.19409  24619583.710 8 128200632.05308  24619583.934 8 104173516.12708
C18  25178725.774 8 132315096.89408  25178732.690 9  98806756.08509  25178732.108 8 131112264.70808  25178732.376 8 106539456.16308
C19  24831579.639 8 130490831.91208  24831586.616 9  97444479.28609  24831585.928 8 129304583.88708  24831586.276 8 105070567.42008
C25  24322943.817 8 127817932.56308  24322950.793 9  95448483.02009  24322950.161 8 126655983.70608  24322950.456 8 102918362.81508
C26  21764734.231 8 114374449.25708  21764741.186 9  85409518.96209  21764740.559 8 113334714.99208  21764740.878 8  92093740.79108
C27  23735999.486 8 124733517.04008  23736006.405 9  93145187.21009  23736005.761 8 123599610.25408  23736006.106 8 100434809.03108
C32  25200059.069 8 132427204.45908  25200066.057 9  98890471.77109  25200065.425 8 131223351.93808  25200065.727 8 106629724.44608
> 2022 12 01 00 07  0.0000000  0 16
C01                                                                  37980954.984 8 197776799.06808  37980955.302 8 160709851.05408
C02                                                                  38535699.931 8 200665501.76608  38535700.338 8 163057158.61508
C03                                                                  37670161.811 8 196158417.69208  37670162.178 8 159394783.62008
C04                                                                  38975848.617 8 202957472.28508  38975848.953 8 164919570.60208
C05                                                                  39896874.918 8 207753497.87608  39896875.222 8 168816735.24708
C06  38507488.378 8 202358218.40008  38507495.355 9 151111682.73709  38507494.595 8 200518628.53108  38507495.030 8 162937812.89808
C07  35889210.107 8 188599070.94008  35889217.024 9 140836996.19509  35889216.319 8 186884566.90908  35889216.635 8 151859020.20608
C09  37235250.613 8 195672562.98808  37235257.614 9 146119148.60009  37235256.916 8 193893753.72608  37235257.284 8 157554558.63908
C10  35899533.614 8 188653323.80008  35899540.637 9 140877508.20109  35899539.923 8 186938324.83908  35899540.294 8 151902703.92208
C11  24632117.801 8 129442650.89808  24632124.791 9  96661748.20809  24632123.883 8 128265932.96608  24632124.286 8 104226578.46708
C18  25178073.226 8 132311667.85008  25178080.181 9  98804195.43609  25178079.538 8 131108866.83408  25178079.854 8 106536695.11308
C19  24846137.761 8 130567335.10708  24846144.702 9  97501608.29709  24846143.923 8 129380391.61108  24846144.376 8 105132167.40508
C25  24310367.017 8 127751841.21408  24310374.027 9  95399129.09109  24310373.238 8 126590493.19008  24310373.691 8 102865146.40508
C26  21763546.199 8 114368206.29808  21763553.169 9  85404857.01209  21763552.554 8 113328528.76408  21763552.862 8  92088713.97708
C27  23747102.152 8 124791862.28808  23747109.141 9  93188756.71609  23747108.518 8 123657425.10908  23747108.833 8 100481788.33408
C32  25180183.783 8 132322758.73808  25180190.737 9  98812476.59609  25180190.037 8 131119855.72308  25180190.354 8 106545625.29608
> 2022 12 01 00 07 30.0000000  0 16
C01                                                                  37980867.707 8 197776344.60108  37980868.029 8 160709481.76608
C02                                                                  38535702.077 8 200665513.52808  38535702.516 8 163057168.17808
C03                                                                  37669906.924 8 196157090.23608  37669907.291 8 159393704.95408
C04                                                                  38975800.100 8 202957219.65608  38975800.440 8 164919365.32008
C05                                                                  39896873.442 8 207753490.00208  39896873.733 8 168816728.85408
C06  38517264.098 8 202409590.03508  38517271.041 9 151150044.67609  38517270.424 8 200569533.15508  38517270.727 8 162979177.07508
C07  35890129.080 8 188603900.41408  35890136.052 9 140840602.61709  35890135.298 8 186889352.47708  35890135.657 8 151862908.86708
C09  37231165.189 8 195651093.72408  37231172.163 9 146103116.35609  37231171.454 8 193872479.65008  37231171.821 8 157537271.71008
C10  35900566.306 8 188658750.11108  35900573.211 9 140881560.31309  35900572.601 8 186943701.81508  35900572.859 8 151907073.16408
C11  24644709.908 8 129508822.79408  24644716.878 9  96711162.28409  24644716.060 8 128331503.33408  24644716.403 8 104279859.76308
C18  25177511.565 8 132308716.31308  25177518.515 9  98801991.36909  25177517.849 8 131105942.13508  25177518.227 8 106534318.55308
C19  24860731.667 8 130644027.11008  24860738.724 9  97558878.30109  24860738.015 8 129456386.43008  24860738.365 8 105193919.41908
C25  24297803.577 8 127685819.68908  24297810.526 9  95349827.30709  24297809.828 8 126525071.87208  24297810.243 8 102811986.22708
C26  21762395.382 8 114362158.80308  21762402.371 9  85400341.02409  21762401.734 8 113322536.23908  21762402.076 8  92083844.56108
C27  23758227.932 8 124850328.61008  23758234.909 9  93232416.62609  23758234.334 8 123715359.91908  23758234.610 8 100528865.11408
C32  25160314.862 8 132218347.16308  25160321.850 9  98734506.91409  25160321.117 8 131016393.34508  25160321.476 8 106461553.63708
> 2022 12 01 00 08  0.0000000  0 16
C01                                                                  37980780.336 8 197775889.73408  37980780.680 8 160709112.14908
C02                                                                  38535704.286 8 200665524.27008  38535704.582 8 163057176.90508
C03                                                                  37669651.116 8 196155758.47108  37669651.537 8 159392622.78708
C04                                                                  38975751.457 8 202956966.99308  38975751.927 8 164919160.00808
C05                                                                  39896871.837 8 207753482.03708  39896872.244 8 168816722.38308
C06  38527052.451 8 202461028.17108  38527059.402 9 151188456.27109  38527058.708 8 200620503.67008  38527059.076 8 163020594.79908
C07  35891047.256 8 188608725.37208  35891054.205 9 140844205.67609  35891053.474 8 186894133.56208  35891053.835 8 151866793.89608
C09  37227098.744 8 195629724.59008  37227105.758 9 146087158.89309  37227105.033 8 193851304.79308  37227105.409 8 157520065.40608
C10  35901619.750 8 188664286.40708  35901626.749 9 140885694.56309  35901625.990 8 186949187.79208  35901626.435 8 151911530.96508
C11  24657353.264 8 129575264.28508  24657360.273 9  96760777.68709  24657359.479 8 128397340.84308  24657359.804 8 104333358.13508
C18  25177040.691 8 132306242.06308  25177047.709 9  98800143.71709  25177046.991 8 131103490.37508  25177047.344 8 106532326.29908
C19  24875361.210 8 130720905.45708  24875368.146 9  97616287.45609  24875367.446 8 129532565.89108  24875367.860 8 105255821.47508
C25  24285253.479 8 127619868.35308  24285260.420 9  95300577.93209  24285259.649 8 126459720.09408  24285260.101 8 102758882.55808
C26  21761281.861 8 114356307.12308  21761288.823 9  85395971.26409  21761288.186 8 113316737.73908  21761288.535 8  92079132.80308
C27  23769376.792 8 124908916.03308  23769383.715 9  93276166.97909  23769382.998 8 123773414.74008  23769383.386 8 100576039.41608
C32  25140453.014 8 132113972.15608  25140459.929 9  98656564.53709  25140459.226 8 130912967.20308  25140459.599 8 106377511.42608
> 2022 12 01 00 08 30.0000000  0 16
C01                                                                  37980692.884 8 197775434.43308  37980693.264 8 160708742.17508
C02                                                                  38535706.173 8 200665533.94908  38535706.473 8 163057184.77808
C03                                                                  37669394.624 8 196154422.37808  37669394.928 8 159391537.10008
C04                                                                  38975703.030 8 202956714.27908  38975703.392 8 164918954.66208
C05                                                                  39896870.299 8 207753473.95108  39896870.670 8 168816715.81108
C06  38536853.377 8 202512532.31808  38536860.337 9 151226917.16009  38536859.581 8 200671539.60208  38536859.987 8 163062065.67008
C07  35891964.487 8 188613545.53008  35891971.437 9 140847805.14109  35891970.809 8 186898909.89508  35891971.070 8 151870675.05408
C09  37223051.375 8 195608455.40808  37223058.357 9 146071276.05409  37223057.659 8 193830228.96708  37223058.024 8 157502939.57208
C10  35902694.283 8 188669933.01308  35902701.250 9 140889911.18309  35902700.540 8 186954783.06608  35902700.948 8 151916077.58408
C11  24670047.561 8 129641972.96608  24670054.519 9  96810592.61209  24670053.712 8 128463443.11408  24670054.037 8 104387071.64308
C18  25176660.659 8 132304244.77608  25176667.616 9  98798652.23509  25176666.882 8 131101511.24608  25176667.277 8 106530718.08808
C19  24890025.582 8 130797967.61108  24890032.585 9  97673833.86909  24890031.987 8 129608927.48508  24890032.288 8 105317871.53108
C25  24272716.717 8 127553987.48708  24272723.676 9  95251381.18009  24272723.080 8 126394438.15308  24272723.390 8 102705835.62708
C26  21760205.576 8 114350651.52508  21760212.596 9  85391747.93209  21760211.944 8 113311133.54108  21760212.292 8  92074578.93908
C27  23780548.623 8 124967624.55408  23780555.586 9  93320007.75709  23780554.880 8 123831589.55708  23780555.275 8 100623311.21908
C32  25120598.453 8 132009636.07608  25120605.445 9  98578651.23209  25120604.774 8 130809579.62808  25120605.120 8 106293500.55408
> 2022 12 01 00 09  0.0000000  0 16
C01                                                                  37980605.406 7 197774978.72707  37980605.741 8 160708371.87408
C02                                                                  38535707.864 7 200665542.60007  38535708.186 8 163057191.79708
C03                                                                  37669137.192 7 196153081.97807  37669137.528 8 159390447.91008
C04                                                                  38975654.486 7 202956461.53807  38975654.840 8 164918749.27808
C05                                                                  39896868.698 7 207753465.75907  39896869.056 8 168816709.14708
C06  38546666.743 8 202564102.04608  38546673.682 9 151265427.01909  38546672.961 7 200722640.51507  38546673.395 8 163103589.34208
C07  35892880.775 8 188618360.64008  35892887.734 9 140851400.83909  35892886.998 7 186903681.22507  35892887.353 8 151874552.15008
C09  37219023.018 8 195587286.01208  37219029.948 9 146055467.74009  37219029.291 7 193809252.02507  37219029.601 8 157485894.08408
C10  35903789.869 8 188675690.28408  35903796.803 9 140894210.44009  35903796.116 7 186960488.00207  35903796.482 8 151920713.30508
C11  24682792.177 8 129708946.47108  24682799.138 9  96860605.29109  24682798.253 7 128529807.80307  24682798.687 8 104440998.38408
C18  25176371.285 8 132302724.16308  25176378.250 9  98797516.71309  25176377.585 7 131100004.45607  25176377.913 8 106529493.70008
C19  24904724.607 8 130875211.07908  24904731.507 9  97731515.68209  24904730.924 7 129685468.75807  24904731.209 8 105380067.57808
C25  24260193.473 8 127488177.42008  24260200.468 9  95202237.29809  24260199.762 7 126329226.36207  24260200.153 8 102652845.70508
C26  21759166.844 8 114345192.33508  21759173.749 9  85387671.26109  21759173.054 7 113305723.96707  21759173.431 8  92070183.21108
C27  23791743.486 8 125026454.19108  23791750.483 9  93363938.97609  23791749.758 7 123889884.38907  23791750.161 8 100670680.54108
C32  25100751.854 8 131905341.32908  25100758.806 9  98500768.78809  25100758.053 7 130706233.01107  25100758.444 8 106209522.95708
> 2022 12 01 00 09 30.0000000  0 16
C01                                                                  37980517.802 8 197774522.59308  37980518.147 8 160708001.22808
C02                                                                  38535709.174 8 200665550.18208  38535709.653 8 163057197.96608
C03                                                                  37668878.916 8 196151737.25508  37668879.301 8 159389355.21208
C04                                                                  38975605.955 8 202956208.73408  38975606.291 8 164918543.85408
C05                                                                  39896867.173 8 207753457.44108  39896867.415 8 168816702.39108
C06  38556492.562 8 202615736.86708  38556499.494 9 151303985.49009  38556498.845 8 200773805.93108  38556499.166 8 163145165.43608
C07  35893796.060 8 188623170.42808  35893803.030 9 140854992.56009  35893802.175 8 186908447.28308  35893802.650 8 151878424.96308
C09  37215013.560 8 195566216.21708  37215020.499 9 146039733.80209  37215019.932 8 193788373.78308  37215020.159 8 157468928.80208
C10  35904906.506 8 188681558.53408  35904913.512 9 140898592.57509  35904912.743 8 186966302.90708  35904913.195 8 151925438.39208
C11  24695586.698 8 129776182.38308  24695593.715 9  96910813.92509  24695592.816 8 128596432.51008  24695593.272 8 104495136.41608
C18  25176172.609 8 132301679.88708  25176179.531 9  98796736.89309  25176178.893 8 131098969.67008  25176179.206 8 106528652.85108
C19  24919457.484 8 130952633.33808  24919464.518 9  97789331.00009  24919463.802 8 129762187.18508  24919464.214 8 105442407.58508
C25  24247683.782 8 127422438.46908  24247690.762 9  95153146.52109  24247690.151 8 126264085.03508  24247690.448 8 102599913.04908
C26  21758165.364 8 114339929.84008  21758172.337 9  85383741.47509  21758171.727 8 113300509.30108  21758172.032 8  92065945.86808
C27  23802961.526 8 125085404.93208  23802968.442 9  93407960.63509  23802967.763 8 123948299.22408  23802968.139 8 100718147.37908
C32  25080913.491 8 131801090.28108  25080920.482 9  98422918.97909  25080919.796 8 130602929.70308  25080920.156 8 106125580.55808
> 2022 12 01 00 10  0.0000000  0 16
C01                                                                  37980430.158 8 197774066.05908  37980430.449 8 160707630.25608
C02                                                                  38535710.480 8 200665556.74108  38535710.860 8 163057203.28908
C03                                                                  37668619.839 8 196150388.24108  37668620.219 8 159388259.02708
C04                                                                  38975557.398 8 202955955.91008  38975557.720 8 164918338.41608
C05                                                                  39896865.523 8 207753449.01308  39896865.845 8 168816695.54708
C06  38566330.561 8 202667436.36108  38566337.580 9 151342592.25709  38566336.838 8 200825035.42708  38566337.256 8 163186793.59808
C07  35894710.290 8 188627974.66008  35894717.206 9 140858580.14509  35894716.540 8 186913207.84008  35894716.823 8 151882293.30508
C09  37211023.047 8 195545245.88708  37211029.950 9 146024074.14409  37211029.298 8 193767594.09808  37211029.647 8 157452043.60608
C10  35906044.424 8 188687538.13208  35906051.408 9 140903057.86409  35906050.780 8 186972228.14308  35906051.044 8 151930253.13608
C11  24708430.786 8 129843678.33908  24708437.747 9  96961216.75609  24708436.849 8 128663314.89208  24708437.324 8 104549483.83708
C18  25176064.398 8 132301111.62608  25176071.367 9  98796312.54209  25176070.655 8 131098406.56808  25176071.054 8 106528195.29208
C19  24934224.020 8 131030231.89808  24934231.018 9  97847277.98209  24934230.384 8 129839080.31408  24934230.711 8 105504889.55208
C25  24235187.722 8 127356770.97908  24235194.644 9  95104109.11609  24235193.939 8 126199014.53208  24235194.339 8 102547037.93108
C26  21757201.441 8 114334864.37608  21757208.404 9  85379958.82609  21757207.788 8 113295489.87608  21757208.098 8  92061867.17108
C27  23814202.472 8 125144476.81808  23814209.431 9  93452072.75909  23814208.753 8 124006834.09908  23814209.136 8 100765711.75908
C32  25061084.028 8 131696885.36508  25061090.961 9  98345103.62009  25061090.191 8 130499672.10108  25061090.618 8 106041675.29708
> 2022 12 01 00 10 30.0000000  0 16
C01                                                                  37980342.286 8 197773609.09808  37980342.716 8 160707258.93808
C02                                                                  38535711.463 8 200665562.23308  38535711.862 8 163057207.75008
C03                                                                  37668359.997 8 196149034.91308  37668360.320 8 159387159.34308
C04                                                                  38975508.765 8 202955703.02708  38975509.159 8 164918132.92608
C05                                                                  39896863.792 8 207753440.46608  39896864.244 8 168816688.58908
C06  38576180.959 8 202719200.03108  38576187.866 9 151381246.94609  38576187.164 8 200876328.51708  38576187.573 8 163228473.43308
C07  35895623.352 8 188632773.06208  35895630.339 9 140862163.36409  35895629.562 8 186917962.61208  35895629.930 8 151886156.94908
C09  37207051.310 8 195524374.81408  37207058.344 9 146008488.60309  37207057.666 8 193746912.76708  37207058.016 8 157435238.32808
C10  35907203.542 8 188693629.38008  35907210.506 9 140907606.52309  35907209.898 8 186978264.02508  35907210.189 8 151935157.78008
C11  24721323.864 8 129911431.91008  24721330.837 9  97011811.95309  24721330.055 8 128730452.55608  24721330.413 8 104604038.68108
C18  25176046.771 8 132301018.99108  25176053.753 9  98796243.36809  25176052.975 8 131098314.77408  25176053.435 8 106528120.69708
C19  24949023.608 8 131108004.21208  24949030.602 9  97905354.71209  24949029.815 8 129916145.62308  24949030.290 8 105567511.42608
C25  24222705.225 8 127291175.25808  24222712.207 9  95055125.29809  24222711.557 8 126134015.13508  24222711.878 8 102494220.59908
C26  21756275.086 8 114329996.23108  21756282.043 9  85376323.52509  21756281.352 8 113290665.97508  21756281.730 8  92057947.36008
C27  23825466.545 8 125203669.82808  23825473.488 9  93496275.33309  23825472.845 8 124065488.99508  23825473.197 8 100813373.67108
C32  25041263.666 8 131592728.93208  25041270.642 9  98267324.46909  25041269.894 8 130396462.54708  25041270.291 8 105957809.08108
> 2022 12 01 00 11  0.0000000  0 16
C01                                                                  37980254.477 8 197773151.73108  37980254.893 8 160706887.29408
C02                                                                  38535712.362 8 200665566.68308  38535712.787 8 163057211.37508
C03                                                                  37668099.293 8 196147677.30408  37668099.611 8 159386056.17308
C04                                                                  38975460.194 8 202955450.11508  38975460.632 8 164917927.42108
C05                                                                  39896862.214 8 207753431.80408  39896862.599 8 168816681.55608
C06  38586043.350 8 202771027.44408  38586050.311 9 151419949.22909  38586049.630 8 200927684.77208  38586050.002 8 163270204.60008
C07  35896535.273 8 188637565.39608  35896542.301 9 140865742.05609  35896541.581 8 186922711.37908  35896541.923 8 151890015.71208
C09  37203098.612 8 195503602.85308  37203105.578 9 145992977.07009  37203104.944 8 193726329.65308  37203105.273 8 157418512.86408
C10  35908383.971 8 188699832.64308  35908390.975 9 140912238.82809  35908390.308 8 186984410.89408  35908390.659 8 151940152.61908
C11  24734265.489 8 129979440.71008  24734272.478 9  97062597.74109  24734271.691 8 128797843.12408  24734272.066 8 104658799.03908
C18  25176119.560 8 132301401.62008  25176126.594 9  98796529.09809  25176125.956 8 131098693.92908  25176126.256 8 106528428.79408
C19  24963855.767 8 131185947.80108  24963862.786 9  97963559.33309  24963862.147 8 129993380.64108  24963862.479 8 105630271.20308
C25  24210236.575 8 127225651.67108  24210243.477 9  95006195.34109  24210242.828 8 126069087.22408  24210243.194 8 102441461.35008
C26  21755386.322 8 114325325.74908  21755393.288 9  85372835.82109  21755392.577 8 113286037.93808  21755392.952 8  92054186.70308
C27  23836753.652 8 125262984.00008  23836760.636 9  93540568.37909  23836760.052 8 124124263.95108  23836760.296 8 100861133.13808
C32  25021453.031 8 131488623.41708  25021460.015 9  98189583.33509  25021459.343 8 130293303.44208  25021459.689 8 105873983.86108
> 2022 12 01 00 11 30.0000000  0 16
C01                                                                  37980166.632 8 197772693.97108  37980166.972 8 160706515.32808
C02                                                                  38535712.943 8 200665570.10008  38535713.395 8 163057214.14708
C03                                                                  37667837.707 8 196146315.41608  37667838.092 8 159384949.53008
C04                                                                  38975411.735 8 202955197.17808  38975412.053 8 164917721.88608
C05                                                                  39896860.564 8 207753423.03508  39896860.895 8 168816674.43608
C06  38595917.804 8 202822918.13508  38595924.740 9 151458698.77509  38595924.073 8 200979103.73408  38595924.446 8 163311986.71908
C07  35897446.098 8 188642351.42308  35897453.034 9 140869316.03209  35897452.227 8 186927453.89108  35897452.659 8 151893869.39108
C09  37199164.643 8 195482929.83508  37199171.661 9 145977539.42809  37199170.919 8 193705844.57308  37199171.288 8 157401867.06108
C10  35909585.770 8 188706148.25908  35909592.783 9 140916955.03409  35909592.148 8 186990669.09608  35909592.452 8 151945237.92008
C11  24747255.232 8 130047702.33208  24747262.225 9  97113572.33109  24747261.603 8 128865484.20908  24747261.815 8 104713762.96708
C18  25176282.784 8 132302259.12908  25176289.779 9  98797169.44609  25176289.098 8 131099543.64308  25176289.440 8 106529119.25508
C19  24978720.080 8 131264060.13708  24978727.054 9  98021889.97609  24978726.399 8 130070782.87208  24978726.749 8 105693166.86008
C25  24197781.607 8 127160200.55908  24197788.536 9  94957319.51109  24197787.846 8 126004231.11508  24197788.235 8 102388760.45008
C26  21754535.237 8 114320853.24408  21754542.153 9  85369495.96709  21754541.541 8 113281606.08108  21754541.857 8  92050585.45708
C27  23848063.803 8 125322419.34608  23848070.790 9  93584951.91909  23848070.107 8 124183158.98408  23848070.466 8 100908990.17308
C32  25001652.655 8 131384571.22308  25001659.549 9  98111882.02009  25001658.834 8 130190197.17608  25001659.218 8 105790201.57508
> 2022 12 01 00 12  0.0000000  0 16
C01                                                                  37980078.626 8 197772235.79908  37980078.975 8 160706143.02308
C02                                                                  38535713.391 8 200665572.45608  38535713.834 8 163057216.05908
C03                                                                  37667575.348 8 196144949.24708  37667575.724 8 159383839.40108
C04                                                                  38975363.110 8 202954944.19008  38975363.473 8 164917516.31408
C05                                                                  39896858.708 8 207753414.14608  39896859.151 8 168816667.20908
C06  38605804.188 8 202874871.62708  38605811.209 9 151497495.21209  38605810.460 8 201030584.92008  38605810.878 8 163353819.39908
C07  35898355.558 8 188647130.86908  35898362.544 9 140872885.09709  35898361.755 8 186932189.87908  35898362.140 8 151897717.76908
C09  37195249.498 8 195462355.55708  37195256.483 9 145962175.51709  37195255.785 8 193685457.34008  37195256.152 8 157385300.76308
C10  35910809.050 8 188712576.53308  35910816.055 9 140921755.36609  35910815.400 8 186997038.93208  35910815.714 8 151950413.93308
C11  24760292.626 8 130116214.34608  24760299.625 9  97164733.89409  24760298.884 8 128933373.41108  24760299.213 8 104768928.50408
C18  25176536.253 8 132303591.08308  25176543.216 9  98798164.08709  25176542.512 8 131100863.48808  25176542.893 8 106530191.73208
C19  24993615.977 8 131342338.69408  24993622.962 9  98080344.74309  24993622.284 8 130148349.81608  24993622.664 8 105756196.35208
C25  24185340.533 8 127094822.24208  24185347.466 9  94908498.04109  24185346.789 8 125939447.15608  24185347.165 8 102336118.17608
C26  21753721.888 8 114316579.02408  21753728.815 9  85366304.17809  21753728.206 8 113277370.71408  21753728.499 8  92047143.86808
C27  23859397.020 8 125381975.85908  23859404.041 9  93629425.93209  23859403.354 8 124242174.08108  23859403.695 8 100956944.77008
C32  24981862.695 8 131280574.73008  24981869.675 9  98034222.30309  24981868.992 8 130087146.10708  24981869.312 8 105706464.13708
> 2022 12 01 00 12 30.0000000  0 16
C01                                                                  37979990.634 8 197771777.23008  37979990.956 8 160705770.40208
C02                                                                  38535713.672 8 200665573.77808  38535714.115 8 163057217.13608
C03                                                                  37667312.113 8 196143578.81208  37667312.534 8 159382725.81808
C04                                                                  38975314.495 8 202954691.19608  38975314.840 8 164917310.73508
C05                                                                  39896857.130 8 207753405.15708  39896857.403 8 168816659.91008
C06  38615702.516 8 202926887.48108  38615709.491 9 151536338.22409  38615708.769 8 201082127.90408  38615709.192 8 163395702.29508
C07  35899263.739 8 188651903.50308  35899270.743 9 140876449.08609  35899270.011 8 186936919.13108  35899270.341 8 151901560.67308
C09  37191353.092 8 195441879.87408  37191360.091 9 145946885.23909  37191359.374 8 193665167.80308  37191359.766 8 157368813.85708
C10  35912053.800 8 188719117.82408  35912060.798 9 140926640.10109  35912060.189 8 187003520.76108  35912060.492 8 151955680.95208
C11  24773377.260 8 130184974.34908  24773384.244 9  97216080.65709  24773383.486 8 129001508.35408  24773383.795 8 104824293.72408
C18  25176879.942 8 132305397.07208  25176886.855 9  98799512.71709  25176886.187 8 131102653.05708  25176886.585 8 106531645.90708
C19  25008543.014 8 131420780.97708  25008550.038 9  98138921.77409  25008549.305 8 130226078.98608  25008549.733 8 105819357.67708
C25  24172913.335 8 127029517.10708  24172920.304 9  94859731.22309  24172919.679 8 125874735.70408  24172920.016 8 102283534.82308
C26  21752946.295 8 114312503.44508  21752953.265 9  85363260.72909  21752952.545 8 113273332.16708  21752952.947 8  92043862.22608
C27  23870753.347 8 125441653.58108  23870760.308 9  93673990.47109  23870759.588 8 124301309.28208  23870760.007 8 101004996.97008
C32  24962083.900 8 131176636.37608  24962090.872 9  97956606.00109  24962090.205 8 129984152.64408  24962090.517 8 105622773.52008
> 2022 12 01 00 13  0.0000000  0 16
C01                                                                  37979902.449 8 197771318.26408  37979902.807 8 160705397.45608
C02                                                                  38535713.744 8 200665574.04808  38535714.151 8 163057217.35808
C03                                                                  37667048.198 8 196142204.11108  37667048.542 8 159381608.75808
C04                                                                  38975265.871 8 202954438.15508  38975266.242 8 164917105.11808
C05                                                                  39896855.408 8 207753396.04608  39896855.672 8 168816652.50108
C06  38625612.567 8 202978965.20708  38625619.530 9 151575227.43009  38625618.882 8 201133732.19208  38625619.232 8 163437635.01008
C07  35900170.599 8 188656669.07408  35900177.583 9 140880007.78709  35900176.836 8 186941641.37408  35900177.226 8 151905397.88008
C09  37187475.411 8 195421502.57708  37187482.439 9 145931668.42409  37187481.735 8 193644975.76008  37187482.092 8 157352406.16708
C10  35913320.209 8 188725772.44008  35913327.147 9 140931609.45509  35913326.465 8 187010114.88308  35913326.815 8 151961039.21708
C11  24786508.624 8 130253979.89908  24786515.555 9  97267610.77309  24786514.813 8 129069886.60908  24786515.140 8 104879856.65608
C18  25177313.641 8 132307676.62508  25177320.668 9  98801214.97809  25177320.028 8 131104911.88308  25177320.371 8 106533481.39208
C19  25023500.795 8 131499384.43908  25023507.777 9  98197619.16409  25023507.059 8 130303967.88808  25023507.483 8 105882648.78208
C25  24160500.168 8 126964285.48008  24160507.132 9  94811019.29009  24160506.525 8 125810097.09908  24160506.850 8 102231010.66008
C26  21752208.524 8 114308626.80408  21752215.571 9  85360365.83009  21752214.868 8 113269490.76508  21752215.248 8  92040740.77108
C27  23882132.689 8 125501452.50308  23882139.660 9  93718645.50809  23882139.042 8 124360564.58208  23882139.347 8 101053146.75408
C32  24942316.590 8 131072758.54608  24942323.547 9  97879034.89009  24942322.814 8 129881219.15408  24942323.212 8 105539131.62608
> 2022 12 01 00 13 30.0000000  0 16
C01                                                                  37979814.183 7 197770858.89207  37979814.586 8 160705024.17808
C02                                                                  38535713.569 7 200665573.26307  38535714.035 8 163057216.72008
C03                                                                  37666783.335 7 196140825.13407  37666783.733 8 159380488.22908
C04                                                                  38975217.246 7 202954185.07507  38975217.631 8 164916899.47508
C05                                                                  39896853.566 7 207753386.81107  39896853.919 8 168816644.99708
C06  38635534.295 8 203031104.33808  38635541.277 9 151614162.49309  38635540.576 7 201185397.33407  38635540.973 8 163479617.16708
C07  35901076.145 8 188661427.32508  35901083.064 9 140883561.02509  35901082.234 7 186946356.36807  35901082.664 8 151909229.19608
C09  37183616.429 8 195401223.49008  37183623.460 9 145916524.94509  37183622.691 7 193624881.03407  37183623.118 8 157336077.55108
C10  35914608.114 8 188732540.71208  35914615.085 9 140936663.68309  35914614.458 7 187016821.62807  35914614.791 8 151966488.99108
C11  24799686.165 8 130323228.56508  24799693.158 9  97319322.44009  24799692.372 7 129138505.76907  24799692.743 8 104935615.34508
C18  25177837.504 8 132310429.26808  25177844.487 9  98803270.52209  25177843.819 7 131107639.50707  25177844.154 8 106535697.80208
C19  25038488.766 8 131578146.56508  25038495.684 9  98256435.03509  25038495.062 7 130382013.99607  25038495.403 8 105946067.64108
C25  24148101.077 8 126899127.72408  24148108.001 9  94762362.52509  24148107.387 7 125745531.68907  24148107.735 8 102178545.97508
C26  21751508.789 8 114304949.44108  21751515.769 9  85357619.74709  21751515.139 7 113265846.82407  21751515.458 8  92037779.76908
C27  23893535.091 8 125561372.64008  23893542.089 9  93763391.06409  23893541.407 7 124419939.99407  23893541.808 8 101101394.14008
C32  24922561.216 8 130968943.64508  24922568.272 9  97801510.77509  24922567.562 7 129778348.02907  24922567.915 8 105455540.40608
> 2022 12 01 00 14  0.0000000  0 16
C01                                                                  37979725.864 7 197770399.15107  37979726.276 8 160704650.59308
C02                                                                  38535713.221 7 200665571.45507  38535713.646 8 163057215.25008
C03                                                                  37666517.734 7 196139441.94007  37666518.087 8 159379364.26308
C04                                                                  38975168.707 8 202953931.99808  38975169.056 8 164916693.81808
C05                                                                  39896851.724 7 207753377.49107  39896852.144 8 168816637.42008
C06  38645467.675 8 203083304.43108  38645474.633 9 151653143.08609  38645473.843 8 201237122.88508  38645474.317 8 163521648.40908
C07  35901980.107 8 188666178.04908  35901987.108 9 140887108.64309  35901986.395 8 186951063.89908  35901986.704 8 151913054.45108
C09  37179776.138 8 195381042.45808  37179783.104 9 145901454.69909  37179782.402 7 193604883.47107  37179782.778 8 157319827.89008
C10  35915917.751 8 188739422.99608  35915924.745 9 140941803.05309  35915924.035 7 187023641.34307  35915924.425 8 151972030.57208
C11  24812909.560 8 130392717.95008  24812916.540 9  97371213.86409  24812915.739 8 129207363.45708  24812916.096 8 104991567.85308
C18  25178451.222 8 132313654.54708  25178458.226 9  98805679.01209  25178457.540 7 131110835.46607  25178457.910 8 106538294.78608
C19  25053506.397 8 131657064.86308  25053513.389 9  98315367.53209  25053512.585 7 130460214.86207  25053513.065 8 106009612.24708
C25  24135716.043 8 126834044.23708  24135723.063 9  94713761.22109  24135722.423 7 125681039.87007  24135722.767 8 102126141.08808
C26  21750847.054 8 114301471.71708  21750853.982 9  85355022.74509  21750853.395 7 113262400.70707  21750853.682 8  92034979.51308
C27  23904960.577 8 125621414.03608  23904967.593 9  93808227.17609  23904966.923 7 124479435.56407  23904967.280 8 101149739.16208
C32  24902818.421 8 130865194.12608  24902825.366 9  97724035.48809  24902824.648 7 129675541.68507  24902825.022 8 105372001.83108
> 2022 12 01 00 14 30.0000000  0 16
C01                                                                  37979637.559 8 197769938.99508  37979637.903 8 160704276.68608
C02                                                                  38535712.617 8 200665568.58508  38535713.118 8 163057212.91108
C03                                                                  37666251.279 8 196138054.47508  37666251.646 8 159378236.83508
C04                                                                  38975120.190 8 202953678.86608  38975120.472 8 164916488.13908
C05                                                                  39896849.863 8 207753368.03608  39896850.293 8 168816629.74208
C06  38655412.564 8 203135564.98308  38655419.494 9 151692168.82109  38655418.810 8 201288908.33708  38655419.166 8 163563728.33808
C07  35902882.652 8 188670920.95808  35902889.623 9 140890650.42709  35902888.871 8 186955763.68708  35902889.243 8 151916873.42008
C09  37175954.458 8 195360959.25708  37175961.401 9 145886457.50009  37175960.763 8 193584982.84408  37175961.077 8 157303657.00608
C10  35917249.180 8 188746419.57608  35917256.146 9 140947027.76809  35917255.513 8 187030574.32208  35917255.811 8 151977664.18408
C11  24826178.268 8 130462445.57108  24826185.231 9  97423283.18709  24826184.485 8 129276457.20908  24826184.856 8 105047712.19208
C18  25179154.864 8 132317351.92508  25179161.808 9  98808440.03409  25179161.170 8 131114499.22408  25179161.510 8 106541271.88608
C19  25068553.305 8 131736136.77008  25068560.244 9  98374414.73309  25068559.539 8 130538567.93608  25068559.965 8 106073280.54308
C25  24123345.350 8 126769035.34408  24123352.267 9  94665215.61609  24123351.556 8 125616621.96608  24123351.984 8 102073796.26608
C26  21750223.306 8 114298193.92708  21750230.223 9  85352575.04509  21750229.498 8 113259152.70808  21750229.898 8  92032340.25308
C27  23916409.183 8 125681576.67108  23916416.146 9  93853153.81509  23916415.412 8 124539051.27008  23916415.845 8 101198181.80808
C32  24883088.408 8 130761512.35808  24883095.371 9  97646610.78609  24883094.645 8 129572802.47808  24883095.052 8 105288517.80808
> 2022 12 01 00 15  0.0000000  0 16
C01                                                                  37979549.110 7 197769478.45707  37979549.464 8 160703902.45808
C02                                                                  38535711.866 7 200665564.66707  38535712.331 8 163057209.73008
C03                                                                  37665983.961 7 196136662.77307  37665984.377 8 159377105.96908
C04                                                                  38975071.458 7 202953425.71907  38975071.847 8 164916282.43208
C05                                                                  39896848.017 7 207753358.47107  39896848.477 8 168816621.97008
C06  38665368.789 8 203187885.54008  38665375.742 9 151731239.36709  38665375.059 7 201340753.25307  38665375.432 8 163605856.57708
C07  35903783.682 8 188675655.84808  35903790.637 9 140894186.22109  35903789.888 7 186960455.52807  35903790.258 8 151920685.92408
C09  37172151.296 8 195340973.72308  37172158.271 9 145871533.23709  37172157.596 7 193565178.99707  37172157.959 8 157287564.75808
C10  35918602.396 8 188753530.79808  35918609.386 9 140952338.10109  35918608.680 7 187037620.89807  35918609.041 8 151983390.10308
C11  24839491.883 8 130532409.00208  24839498.862 9  97475528.61009  24839498.155 7 129345784.63907  24839498.458 8 105104046.40508
C18  25179948.167 8 132321520.88508  25179955.159 9  98811553.22409  25179954.501 7 131118630.29107  25179954.813 8 106544628.71408
C19  25083628.983 8 131815359.78408  25083635.897 9  98433574.77909  25083635.159 7 130617070.75007  25083635.600 8 106137070.50608
C25  24110988.808 8 126704101.44108  24110995.773 9  94616726.01709  24110995.092 7 125552278.37807  24110995.456 8 102021511.82808
C26  21749637.656 8 114295116.43608  21749644.626 9  85350276.92309  21749643.941 7 113256103.18907  21749644.299 8  92029862.26608
C27  23927880.884 8 125741860.58208  23927887.796 9  93898171.02309  23927887.152 7 124598787.14707  23927887.484 8 101246722.09908
C32  24863371.826 8 130657900.77808  24863378.760 9  97569238.50609  24863378.093 7 129470132.82407  24863378.422 8 105205090.30308
> 2022 12 01 00 15 30.0000000  0 16
C01                                                                  37979460.576 8 197769017.51708  37979460.952 8 160703527.90708
C02                                                                  38535711.003 8 200665559.69008  38535711.428 8 163057205.69208
C03                                                                  37665715.927 8 196135266.82708  37665716.316 8 159375971.64708
C04                                                                  38975022.811 8 202953172.53708  38975023.263 8 164916076.70008
C05                                                                  39896846.192 8 207753348.77908  39896846.537 8 168816614.09408
C06  38675336.364 8 203240265.61108  38675343.391 9 151770354.35809  38675342.700 8 201392657.13808  38675343.033 8 163648032.74108
C07  35904683.025 8 188680382.44708  35904690.096 9 140897715.82509  35904689.241 8 186965139.15608  35904689.710 8 151924491.75608
C09  37168366.732 8 195321085.64408  37168373.695 9 145856681.75009  37168373.026 8 193545471.72408  37168373.393 8 157271550.98308
C10  35919977.491 8 188760756.96708  35919984.479 9 140957734.26409  35919983.820 8 187044781.37208  35919984.140 8 151989208.58108
C11  24852849.875 8 130602605.79008  24852856.846 9  97527948.29009  24852856.053 8 129415343.29208  24852856.471 8 105160568.51308
C18  25180831.198 8 132326160.87908  25180838.074 9  98815018.15409  25180837.341 8 131123228.09808  25180837.789 8 106548364.81308
C19  25098732.835 8 131894731.36908  25098739.782 9  98492845.76509  25098739.155 8 130695720.77508  25098739.514 8 106200980.09808
C25  24098646.705 8 126639242.89108  24098653.610 9  94568292.68109  24098653.077 8 125488009.44608  24098653.284 8 101969288.06308
C26  21749090.197 8 114292239.56708  21749097.182 9  85348128.60909  21749096.588 8 113253252.46808  21749096.839 8  92027545.81908
C27  23939375.537 8 125802265.76308  23939382.503 9  93943278.78909  23939381.881 8 124658643.19408  23939382.236 8 101295360.04308
C32  24843669.012 8 130554361.79508  24843675.956 9  97491920.43309  24843675.185 8 129367535.09908  24843675.580 8 105121721.25108
> 2022 12 01 00 16  0.0000000  0 16
C01                                                                  37979371.935 8 197768556.24208  37979372.343 8 160703153.07808
C02                                                                  38535709.934 8 200665553.71508  38535710.341 8 163057200.83608
C03                                                                  37665447.053 8 196133866.70408  37665447.420 8 159374833.92808
C04                                                                  38974974.200 8 202952919.37508  38974974.607 8 164915870.98408
C05                                                                  39896844.390 8 207753339.02908  39896844.726 8 168816606.16708
C06  38685315.206 8 203292704.79108  38685322.194 9 151809513.48309  38685321.461 8 201444619.60208  38685321.871 8 163690256.49208
C07  35905580.952 8 188685100.59208  35905587.939 9 140901239.11509  35905587.167 8 186969814.41008  35905587.514 8 151928290.77708
C09  37164600.615 8 195301294.90208  37164607.639 9 145841902.94909  37164606.971 8 193525860.90108  37164607.327 8 157255615.58208
C10  35921374.517 8 188768098.46708  35921381.520 9 140963216.55809  35921380.788 8 187052056.13908  35921381.180 8 151995119.91708
C11  24866251.862 8 130673033.54308  24866258.811 9  97580540.44209  24866258.029 8 129485130.81708  24866258.437 8 105217276.58608
C18  25181803.637 8 132331271.40908  25181810.616 9  98818834.46009  25181809.908 8 131128292.17108  25181810.281 8 106552479.78508
C19  25113864.547 8 131974249.05808  25113871.515 9  98552225.85809  25113870.779 8 130774515.58208  25113871.204 8 106265007.32708
C25  24086318.871 8 126574460.13908  24086325.795 9  94519915.94909  24086325.086 8 125423815.63008  24086325.529 8 101917125.32508
C26  21748580.998 8 114289563.72808  21748587.986 9  85346130.41909  21748587.301 8 113250600.95008  21748587.637 8  92025391.24508
C27  23950893.386 8 125862792.30008  23950900.342 9  93988477.17709  23950899.633 8 124718619.49308  23950900.032 8 101344095.69508
C32  24823980.418 8 130450897.88608  24823987.427 9  97414658.42609  24823986.698 8 129265011.77308  24823987.057 8 105038412.64508
> 2022 12 01 00 16 30.0000000  0 16
C01                                                                  37979283.321 8 197768094.51108  37979283.711 8 160702777.88808
C02                                                                  38535708.503 8 200665546.63208  38535708.906 8 163057195.07108
C03                                                                  37665177.365 8 196132462.29208  37665177.727 8 159373692.72608
C04                                                                  38974925.598 8 202952666.13408  38974925.938 8 164915665.20108
C05                                                                  39896842.481 8 207753329.08808  39896842.830 8 168816598.09708
C06  38695305.197 8 203345202.47608  38695312.160 9 151848716.30109  38695311.471 8 201496640.03808  38695311.863 8 163732527.36108
C07  35906477.126 8 188689809.92508  35906484.052 9 140904755.82209  35906483.279 8 186974480.92508  35906483.697 8 151932082.70908
C09  37160853.073 8 195281601.17808  37160860.050 9 145827196.59709  37160859.335 8 193506346.21908  37160859.742 8 157239758.30208
C10  35922793.517 8 188775555.50508  35922800.526 9 140968785.11809  35922799.900 8 187059445.37908  35922800.195 8 152001124.28608
C11  24879697.268 8 130743689.68708  24879704.236 9  97633303.14609  24879703.446 8 129555144.65008  24879703.849 8 105274168.56408
C18  25182865.556 8 132336851.78108  25182872.513 9  98823001.62209  25182871.858 8 131133821.81708  25182872.195 8 106556973.07308
C19  25129023.587 8 132053910.21308  25129030.528 9  98611713.08409  25129029.899 8 130853452.55108  25129030.217 8 106329150.08108
C25  24074005.645 8 126509753.44808  24074012.559 9  94471596.02009  24074011.963 8 125359697.18708  24074012.270 8 101865023.83308
C26  21748110.082 8 114287089.14708  21748117.061 9  85344282.51609  21748116.415 8 113248148.86108  21748116.727 8  92023398.72108
C27  23962434.235 8 125923440.09208  23962441.212 9  94033766.10809  23962440.535 8 124778715.94108  23962440.929 8 101392928.98308
C32  24804306.578 8 130347511.36308  24804313.600 9  97337454.19809  24804312.825 8 129162565.12108  24804313.270 8 104955166.35308
> 2022 12 01 00 17  0.0000000  0 16
C01                                                                  37979194.609 7 197767632.45407  37979194.980 8 160702402.43008
C02                                                                  38535707.050 7 200665538.54607  38535707.403 8 163057188.50408
C03                                                                  37664906.899 8 196131053.71408  37664907.217 8 159372548.14308
C04                                                                  38974876.965 7 202952412.91907  38974877.332 8 164915459.44508
C05                                                                  39896840.527 7 207753319.09407  39896840.911 8 168816589.96908
C06  38705306.278 8 203397758.32108  38705313.179 9 151887962.54509  38705312.608 8 201548718.10008  38705312.918 8 163774845.05108
C07  35907371.559 8 188694510.33208  35907378.540 9 140908265.86709  35907377.773 8 186979138.60608  35907378.137 8 151935867.45108
C09  37157123.931 8 195262004.40508  37157130.904 9 145812562.64309  37157130.229 7 193486927.59907  37157130.587 8 157223979.08408
C10  35924234.629 8 188783128.50608  35924241.637 9 140974440.28409  35924240.929 7 187066949.54007  35924241.325 8 152007222.02408
C11  24893185.712 8 130814571.88208  24893192.657 9  97686234.65109  24893192.002 7 129625382.48707  24893192.271 8 105331242.55808
C18  25184016.811 8 132342901.52408  25184023.738 9  98827519.28609  25184023.075 7 131139816.55707  25184023.438 8 106561844.29708
C19  25144209.398 8 132133712.42908  25144216.386 9  98671305.64709  25144215.677 7 130932529.29507  25144216.078 8 106393406.41108
C25  24061706.851 8 126445123.34208  24061713.898 9  94423333.27509  24061713.098 7 125295654.62407  24061713.580 8 101812984.00608
C26  21747677.549 8 114284816.30008  21747684.567 9  85342585.25909  21747683.855 7 113245896.66807  21747684.248 8  92021568.62908
C27  23973998.248 8 125984209.27308  23974005.223 9  94079145.69209  23974004.612 7 124838932.67407  23974004.941 8 101441860.01108
C32  24784648.035 8 130244204.76008  24784655.049 9  97260309.66009  24784654.256 7 129060197.67307  24784654.664 8 104871984.41108
> 2022 12 01 00 17 30.0000000  0 16
C01                                                                  37979105.780 8 197767169.99108  37979106.174 8 160702026.63908
C02                                                                  38535705.386 8 200665529.38008  38535705.583 8 163057181.06008
C03                                                                  37664635.520 8 196129640.90208  37664635.905 8 159371400.11908
C04                                                                  38974828.282 8 202952159.65308  38974828.689 8 164915253.64908
C05                                                                  39896838.599 8 207753308.95408  39896838.931 8 168816581.73408
C06  38715318.265 8 203450371.75908  38715325.257 9 151927251.80209  38715324.526 8 201600853.23508  38715324.902 8 163817209.11608
C07  35908264.286 8 188699201.50108  35908271.221 9 140911769.01609  35908270.510 8 186983787.12608  35908270.856 8 151939644.75708
C09  37153413.241 8 195242504.30808  37153420.178 9 145798000.88309  37153419.482 8 193467604.77408  37153419.867 8 157208277.70908
C10  35925697.898 8 188790817.71908  35925704.853 9 140980182.22609  35925704.205 8 187074568.84608  35925704.525 8 152013413.33808
C11  24906716.669 8 130885677.58908  24906723.633 9  97739333.07209  24906722.832 8 129695841.79908  24906723.241 8 105388496.52408
C18  25185257.148 8 132349419.94108  25185264.126 9  98832386.93109  25185263.434 8 131146275.71208  25185263.863 8 106567092.88508
C19  25159421.537 8 132213653.09408  25159428.562 9  98731001.60009  25159427.893 8 131011743.22808  25159428.280 8 106457774.22508
C25  24049422.806 8 126380570.12808  24049429.801 9  94375127.95709  24049429.111 8 125231688.25708  24049429.505 8 101761006.09508
C26  21747283.501 8 114282745.44808  21747290.500 9  85341038.84409  21747289.755 8 113243844.63908  21747290.193 8  92019901.19008
C27  23985585.333 8 126045099.78308  23985592.298 9  94124615.88109  23985591.679 8 124899269.63508  23985591.996 8 101490888.73808
C32  24765005.044 8 130140980.42908  24765012.083 9  97183226.55609  24765011.395 8 128957911.74208  24765011.735 8 104788868.71908
> 2022 12 01 00 18  0.0000000  0 16
C01                                                                  37979016.969 8 197766707.15608  37979017.269 8 160701650.55008
C02                                                                  38535703.200 8 200665519.18608  38535703.634 8 163057172.77308
C03                                                                  37664363.386 8 196128223.89908  37664363.780 8 159370248.68808
C04                                                                  38974779.689 8 202951906.38208  38974780.078 8 164915047.84808
C05                                                                  39896836.650 8 207753298.71208  39896836.900 8 168816573.40508
C06  38725341.163 8 203503042.34508  38725348.102 9 151966583.73509  38725347.438 8 201653045.00108  38725347.798 8 163859619.20208
C07  35909155.201 8 188703883.24208  35909162.166 9 140915265.12009  35909161.393 8 186988426.30608  35909161.752 8 151943414.47208
C09  37149720.827 8 195223100.71908  37149727.778 9 145783511.19209  37149727.135 8 193448377.58608  37149727.483 8 157192654.04508
C10  35927183.256 8 188798623.48808  35927190.241 9 140986011.21209  35927189.555 8 187082303.65708  35927189.911 8 152019698.50308
C11  24920289.694 8 130957004.38008  24920296.652 9  97792596.58509  24920295.990 8 129766520.18808  24920296.293 8 105445928.50408
C18  25186586.680 8 132356406.43608  25186593.652 9  98837604.11909  25186592.899 8 131153198.69108  25186593.328 8 106572718.37908
C19  25174659.657 8 132293729.73208  25174666.654 9  98790799.08609  25174665.998 8 131091091.90308  25174666.351 8 106522251.51908
C25  24037153.468 8 126316094.24808  24037160.469 9  94326980.38309  24037159.747 8 125167798.52308  24037160.153 8 101709090.45408
C26  21746927.982 8 114280876.99508  21746934.942 9  85339643.57109  21746934.306 8 113241993.16308  21746934.616 8  92018396.71108
C27  23997195.480 8 126106111.67808  23997202.468 9  94170176.70909  23997201.843 8 124959726.87908  23997202.177 8 101540015.19508
C32  24745378.268 8 130037840.83008  24745385.277 9  97106206.72809  24745384.578 8 128855709.77608  24745384.937 8 104705821.24908
> 2022 12 01 00 18 30.0000000  0 16
C01                                                                  37978927.894 8 197766243.95808  37978928.324 8 160701274.15408
C02                                                                  38535701.049 8 200665507.94708  38535701.501 8 163057163.64008
C03                                                                  37664090.497 8 196126802.70408  37664090.864 8 159369093.84808
C04                                                                  38974731.105 8 202951653.10508  38974731.436 8 164914842.03208
C05                                                                  39896834.772 8 207753288.36308  39896834.996 8 168816564.99108
C06  38735374.773 8 203555769.60708  38735381.758 9 152005957.98909  38735381.118 8 201705292.92708  38735381.448 8 163902074.91608
C07  35910044.291 8 188708555.32208  35910051.207 9 140918754.00909  35910050.361 8 186993055.91208  35910050.806 8 151947176.40208
C09  37146046.787 8 195203793.44908  37146053.757 9 145769093.42409  37146053.087 8 193429245.84308  37146053.428 8 157177107.92708
C10  35928690.894 8 188806546.12508  35928697.861 9 140991927.46709  35928697.120 8 187090154.27308  35928697.523 8 152026077.77208
C11  24933904.255 8 131028549.78108  24933911.303 9  97846023.34809  24933910.572 8 129837415.19508  24933910.939 8 105503536.50208
C18  25188005.127 8 132363860.36108  25188012.084 9  98843170.36409  25188011.415 8 131160584.86008  25188011.749 8 106578720.23808
C19  25189923.109 8 132373939.80508  25189930.111 9  98850696.22109  25189929.386 8 131170572.79008  25189929.833 8 106586836.25008
C25  24024898.914 8 126251696.10808  24024905.900 9  94278890.86209  24024905.228 8 125103985.82008  24024905.584 8 101657237.40108
C26  21746610.961 8 114279211.29008  21746617.959 9  85338399.70009  21746617.310 8 113240342.60108  21746617.638 8  92017055.49108
C27  24008828.741 8 126167244.97008  24008835.745 9  94215828.19109  24008835.130 8 125020304.41008  24008835.455 8 101589239.40408
C32  24725768.091 8 129934788.39908  24725775.045 9  97029251.98609  24725774.456 8 128753594.18408  24725774.697 8 104622843.96308
> 2022 12 01 00 19  0.0000000  0 16
C01                                                                  37978838.855 7 197765780.35707  37978839.285 8 160700897.45308
C02                                                                  38535698.674 7 200665495.63807  38535699.167 8 163057153.63908
C03                                                                  37663816.735 7 196125377.29807  37663817.120 8 159367935.59208
C04                                                                  38974682.324 7 202951399.78807  38974682.785 8 164914636.19608
C05                                                                  39896832.598 7 207753277.87107  39896832.988 8 168816556.47808
C06  38745419.156 8 203608553.02508  38745426.143 9 152045374.18009  38745425.549 7 201757596.49407  38745425.792 8 163944575.85608
C07  35910931.420 8 188713217.48308  35910938.387 9 140922235.49609  35910937.656 7 186997675.68507  35910937.999 8 151950930.35308
C09  37142390.924 8 195184582.26308  37142397.966 9 145754747.40809  37142397.291 7 193410209.29907  37142397.662 8 157161639.18608
C10  35930220.777 8 188814585.91808  35930227.785 9 140997931.20709  35930227.033 7 187098120.97407  35930227.466 8 152032551.37508
C11  24947560.110 8 131100311.29808  24947567.038 9  97899611.49209  24947566.348 7 129908524.35107  24947566.710 8 105561318.52208
C18  25189512.337 8 132371781.02308  25189519.325 9  98849085.14609  25189518.657 7 131168433.51507  25189518.999 8 106585097.91908
C19  25205211.504 8 132454280.76608  25205218.509 9  98910691.09309  25205217.779 7 131250183.37907  25205218.205 8 106651526.37908
C25  24012659.183 8 126187376.08608  24012666.179 9  94230859.67909  24012665.545 7 125040250.52507  24012665.888 8 101605447.26108
C26  21746332.659 8 114277748.66508  21746339.623 9  85337307.48109  21746338.974 7 113238893.26707  21746339.280 8  92015877.79408
C27  24020485.132 8 126228499.64608  24020492.126 9  94261570.32209  24020491.468 7 125081002.23207  24020491.837 8 101638561.35708
C32  24706174.910 8 129831825.52808  24706181.847 9  96952364.12909  24706181.118 7 128651567.33607  24706181.520 8 104539938.79708
> 2022 12 01 00 19 30.0000000  0 16
C01                                                                  37978749.785 7 197765316.39607  37978750.192 8 160700520.44308
C02                                                                  38535696.206 7 200665482.27907  38535696.560 8 163057142.79108
C03                                                                  37663542.262 7 196123947.71107  37663542.594 8 159366773.94108
C04                                                                  38974633.744 7 202951146.45907  38974634.169 8 164914430.34908
C05                                                                  39896830.582 7 207753267.27507  39896830.984 8 168816547.86508
C06  38755474.129 8 203661392.14608  38755481.065 9 152084831.96409  38755480.450 7 201809955.25307  38755480.739 8 163987121.64208
C07  35911816.681 8 188717869.52908  35911823.666 9 140925709.42509  35911822.975 7 187002285.43907  35911823.249 8 151954676.15508
C09  37138753.478 8 195165466.97808  37138760.479 9 145740473.00909  37138759.724 7 193391267.79007  37138760.123 8 157146247.66008
C10  35931773.098 8 188822743.19808  35931780.062 9 141004022.68209  35931779.346 7 187106204.09807  35931779.740 8 152039119.57408
C11  24961256.474 8 131172286.47308  24961263.484 9  97953359.18609  24961262.818 7 129979845.22107  24961263.110 8 105619272.57608
C18  25191108.313 8 132380167.76308  25191115.289 9  98855347.97109  25191114.507 7 131176744.00907  25191114.958 8 106591850.88008
C19  25220524.297 8 132534750.10508  25220531.316 9  98970781.83809  25220530.662 7 131329921.18507  25220531.011 8 106716319.87808
C25  24000434.449 8 126123134.62408  24000441.452 9  94182887.15909  24000440.773 7 124976593.08007  24000441.143 8 101553720.37308
C26  21746093.029 8 114276489.50908  21746100.051 9  85336367.20209  21746099.278 7 113237645.55307  21746099.693 8  92014863.92608
C27  24032164.718 8 126289875.75608  24032171.628 9  94307403.13509  24032171.077 7 125141820.37807  24032171.317 8 101687981.08608
C32  24686599.219 8 129728954.67308  24686606.203 9  96875544.98709  24686605.531 7 128549631.67407  24686605.853 8 104457107.72508
> 2022 12 01 00 20  0.0000000  0 16
C01                                                                  37978660.710 7 197764852.09107  37978661.024 8 160700143.15608
C02                                                                  38535693.335 7 200665467.90307  38535693.774 8 163057131.10808
C03                                                                  37663266.842 7 196122513.97507  37663267.267 8 159365608.90808
C04                                                                  38974585.071 7 202950893.14207  38974585.482 8 164914224.49908
C05                                                                  39896828.493 7 207753256.58307  39896828.914 8 168816539.17708
C06  38765539.554 8 203714286.50308  38765546.514 9 152124330.99609  38765545.836 7 201862368.75207  38765546.218 8 164029711.90008
C07  35912699.948 8 188722511.25008  35912706.937 9 140929175.64409  35912706.173 7 187006884.96207  35912706.559 8 151958413.63808
C09  37135134.147 8 195146447.42008  37135141.198 9 145726270.09309  37135140.511 7 193372421.14207  37135140.834 8 157130933.21408
C10  35933347.784 8 188831018.29208  35933354.771 9 141010202.13709  35933354.070 7 187114403.96407  35933354.432 8 152045782.64008
C11  24974993.174 8 131244472.84608  24975000.089 9  98007264.59709  24974999.410 7 130051375.38207  24974999.745 8 105677396.68108
C18  25192792.778 8 132389019.89908  25192799.766 9  98861958.33509  25192798.992 7 131185515.67607  25192799.457 8 106598978.56908
C19  25235861.091 8 132615345.33308  25235868.111 9  99030966.58509  25235867.507 7 131409783.72707  25235867.788 8 106781214.73308
C25  23988224.836 8 126058972.16908  23988231.751 9  94134973.63409  23988231.093 7 124913013.91007  23988231.463 8 101502057.08808
C26  21745892.256 8 114275434.20708  21745899.228 9  85335579.14909  21745898.598 7 113236599.84107  21745898.877 8  92014014.19308
C27  24043867.283 8 126351373.33608  24043874.204 9  94353326.65009  24043873.559 7 125202758.88607  24043873.935 8 101737498.61508
C32  24667041.536 8 129626178.29208  24667048.508 9  96798796.39209  24667047.825 7 128447789.62307  24667048.147 8 104374352.71308
> 2022 12 01 00 20 30.0000000  0 16
C01                                                                  37978571.430 7 197764387.39907  37978571.797 8 160699765.55908
C02                                                                  38535690.451 8 200665452.45908  38535690.832 8 163057118.55608
C03                                                                  37662990.714 8 196121076.05208  37662991.113 8 159364440.48008
C04                                                                  38974536.397 8 202950639.80108  38974536.844 8 164914018.64808
C05                                                                  39896826.445 7 207753245.77107  39896826.763 8 168816530.39308
C06  38775615.378 8 203767235.57108  38775622.399 9 152163870.88609  38775621.718 8 201914836.46708  38775622.086 8 164072346.21708
C07  35913581.245 8 188727142.39508  35913588.215 9 140932633.96609  35913587.360 8 187011474.00408  35913587.808 8 151962142.61408
C09  37131533.012 8 195127523.34708  37131540.030 9 145712138.47809  37131539.397 8 193353669.10108  37131539.697 8 157115695.64508
C10  35934944.922 8 188839411.47208  35934951.934 9 141016469.77309  35934951.201 8 187122720.84308  35934951.601 8 152052540.78308
C11  24988769.455 8 131316867.90608  24988776.437 9  98061325.84209  24988775.616 8 130123112.32608  24988776.068 8 105735688.82308
C18  25194565.735 8 132398336.67908  25194572.699 9  98868915.66909  25194572.013 8 131194747.75508  25194572.357 8 106606480.39308
C19  25251221.365 8 132696063.87608  25251228.313 9  99091243.41809  25251227.682 8 131489768.46408  25251228.006 8 106846208.88508
C25  23976030.145 8 125994889.09908  23976037.144 9  94087119.39509  23976036.441 8 124849513.41308  23976036.851 8 101450457.73308
C26  21745730.328 8 114274583.08308  21745737.260 9  85334943.57309  21745736.504 8 113235756.45308  21745736.912 8  92013328.87508
C27  24055592.931 8 126412992.36508  24055599.939 9  94399340.86309  24055599.329 8 125263817.74808  24055599.653 8 101787113.93908
C32  24647502.297 8 129523498.78108  24647509.251 9  96722120.13709  24647508.489 8 128346043.56008  24647508.871 8 104291675.70108
> 2022 12 01 00 21  0.0000000  0 16
C01                                                                  37978482.145 7 197763922.35407  37978482.476 8 160699387.66208
C02                                                                  38535687.478 7 200665435.97607  38535687.728 8 163057105.15608
C03                                                                  37662713.872 7 196119633.97207  37662714.185 8 159363268.66708
C04                                                                  38974487.822 7 202950386.44607  38974488.175 8 164913812.77708
C05                                                                  39896824.482 7 207753234.84207  39896824.756 8 168816521.50608
C06  38785701.479 8 203820238.88108  38785708.593 9 152203451.27509  38785707.953 7 201967357.92807  38785708.255 8 164115024.20108
C07  35914460.358 8 188731762.73808  35914467.449 9 140936084.22409  35914466.758 7 187016052.35107  35914467.031 8 151965862.89608
C09  37127949.879 8 195108694.55208  37127957.031 9 145698078.01509  37127956.380 7 193335011.48507  37127956.702 8 157100534.80108
C10  35936564.520 8 188847923.05908  35936571.631 9 141022825.82509  35936570.953 7 187131155.05407  35936571.308 8 152059394.26708
C11  25002584.877 8 131389469.17708  25002591.984 9  98115541.07509  25002591.252 7 130195053.60107  25002591.636 8 105794147.00208
C18  25196426.799 8 132408117.37008  25196433.913 9  98876219.43009  25196433.226 7 131204439.53607  25196433.591 8 106614355.75708
C19  25266604.453 8 132776903.22108  25266611.530 9  99151610.45909  25266610.931 7 131569872.91007  25266611.245 8 106911300.30808
C25  23963850.655 8 125930885.85708  23963857.742 9  94039324.76809  23963857.161 7 124786092.02207  23963857.441 8 101398922.65708
C26  21745607.103 8 114273936.52408  21745614.210 9  85334460.75209  21745613.612 7 113235115.77807  21745613.886 8  92012808.27508
C27  24067341.699 8 126474732.87808  24067348.775 9  94445445.78809  24067348.039 7 125324996.98307  24067348.466 8 101836827.07708
C32  24627981.795 8 129420918.58908  24627988.890 9  96645518.04209  24627988.213 7 128244395.91707  24627988.522 8 104209078.66208
> 2022 12 01 00 21 30.0000000  0 16
C01                                                                  37978392.798 7 197763456.93507  37978393.089 8 160699009.48308
C02                                                                  38535684.106 7 200665418.43407  38535684.249 8 163057090.90808
C03                                                                  37662436.157 7 196118187.72507  37662436.453 8 159362093.47908
C04                                                                  38974439.184 7 202950133.09107  38974439.515 8 164913606.90208
C05                                                                  39896822.323 7 207753223.79607  39896822.618 8 168816512.53708
C06  38795797.900 8 203873295.92708  38795805.048 9 152243071.80609  38795804.365 7 202019932.64507  38795804.704 8 164157745.47408
C07  35915337.473 8 188736372.07808  35915344.581 9 140939526.26709  35915343.755 7 187020619.78907  35915344.144 8 151969574.31908
C09  37124385.007 8 195089960.83908  37124392.127 9 145684088.55409  37124391.526 7 193316448.07907  37124391.789 8 157085450.51708
C10  35938206.811 8 188856553.35108  35938213.913 9 141029270.52709  35938213.205 7 187139706.88907  35938213.622 8 152066343.33808
C11  25016439.181 8 131462274.16308  25016446.316 9  98169908.43909  25016445.620 7 130267196.74507  25016445.946 8 105852769.22108
C18  25198376.160 8 132418361.22808  25198383.269 9  98883869.06809  25198382.527 7 131214590.26507  25198382.918 8 106622604.05908
C19  25282010.134 8 132857860.85108  25282017.225 9  99212065.83609  25282016.614 7 131650094.56607  25282016.935 8 106976486.97508
C25  23951686.455 8 125866962.88808  23951693.568 9  93991590.08209  23951692.993 7 124722750.16807  23951693.294 8 101347452.21608
C26  21745523.076 8 114273494.90608  21745530.174 9  85334130.97109  21745529.560 7 113234678.16307  21745529.847 8  92012452.68408
C27  24079113.583 8 126536594.88808  24079120.722 9  94491641.44809  24079120.029 7 125386296.60807  24079120.387 8 101886638.04808
C32  24608480.752 8 129318440.15108  24608487.871 9  96568991.93409  24608487.168 7 128142849.09907  24608487.509 8 104126563.55808
> 2022 12 01 00 22  0.0000000  0 16
C01                                                                  37978303.262 8 197762991.16508  37978303.674 8 160698631.00208
C02                                                                  38535680.345 8 200665399.85408  38535680.721 8 163057075.80608
C03                                                                  37662157.580 8 196116737.33508  37662157.924 8 159360914.91808
C04                                                                  38974390.604 8 202949879.73108  38974390.891 8 164913401.02608
C05                                                                  39896820.091 8 207753212.63308  39896820.458 8 168816503.47108
C06  38805904.482 8 203926406.25808  38805911.588 9 152282732.10909  38805910.916 8 202072560.15108  38805911.258 8 164200509.62408
C07  35916212.414 8 188740970.19808  35916219.544 9 140942959.92909  35916218.796 8 187025176.10908  35916219.156 8 151973276.69908
C09  37120838.143 8 195071321.99708  37120845.238 9 145670169.94009  37120844.628 8 193297978.68908  37120844.922 8 157070442.61808
C10  35939871.791 8 188865302.65908  35939878.843 9 141035804.10209  35939878.192 8 187148376.66308  35939878.531 8 152073388.23408
C11  25030331.796 8 131535280.39408  25030338.956 9  98224426.07709  25030338.273 8 130339539.29808  25030338.580 8 105911553.46908
C18  25200413.462 8 132429067.48508  25200420.569 9  98891863.99509  25200419.926 8 131225199.19108  25200420.235 8 106631224.68108
C19  25297437.835 8 132938934.24408  25297444.989 9  99272607.65509  25297444.376 8 131730430.92708  25297444.664 8 107041766.85008
C25  23939537.653 8 125803120.63408  23939544.821 9  93943915.66809  23939544.165 8 124659488.29308  23939544.513 8 101296046.75608
C26  21745478.032 8 114273258.60108  21745485.207 9  85333954.51209  21745484.594 8 113234444.00608  21745484.898 8  92012262.40608
C27  24090908.660 8 126598578.42308  24090915.757 9  94537927.85309  24090915.190 8 125447716.65608  24090915.470 8 101936546.86708
C32  24588999.614 8 129216065.90708  24589006.709 9  96492543.63409  24589005.916 8 128041405.52708  24589006.346 8 104044132.34708
> 2022 12 01 00 22 30.0000000  0 16
C01                                                                  37978213.843 8 197762525.04508  37978214.130 8 160698252.24308
C02                                                                  38535676.696 8 200665380.22008  38535677.005 8 163057059.85708
C03                                                                  37661878.224 8 196115282.80908  37661878.587 8 159359732.99808
C04                                                                  38974341.895 8 202949626.36608  38974342.230 8 164913195.14808
C05                                                                  39896817.887 8 207753201.37408  39896818.330 8 168816494.31708
C06  38816021.066 8 203979569.35508  38816028.191 9 152322431.82809  38816027.576 8 202125239.94308  38816027.861 8 164243316.27708
C07  35917085.275 8 188745556.88408  35917092.400 9 140946385.04709  35917091.646 8 187029721.09108  35917091.962 8 151976969.87208
C09  37117309.233 8 195052777.82108  37117316.403 9 145656322.01409  37117315.870 8 193279603.09008  37117316.120 8 157055510.94108
C10  35941559.329 8 188874171.28908  35941566.511 9 141042426.77709  35941565.851 8 187157164.66308  35941566.184 8 152080529.21308
C11  25044262.277 8 131608485.36808  25044269.377 9  98279092.13109  25044268.661 8 130412078.78808  25044269.039 8 105970497.75008
C18  25202538.622 8 132440235.34708  25202545.770 9  98900203.63409  25202545.075 8 131236265.52608  25202545.438 8 106640216.98408
C19  25312887.167 8 133020120.88308  25312894.338 9  99333234.04209  25312893.664 8 131810879.50008  25312894.015 8 107107137.90908
C25  23927404.375 8 125739359.52408  23927411.477 9  93896301.85909  23927410.905 8 124596306.83708  23927411.189 8 101244706.64908
C26  21745472.304 8 114273227.99108  21745479.416 9  85333931.65509  21745478.794 8 113234413.67708  21745479.067 8  92012237.76508
C27  24102726.869 8 126660683.50208  24102734.001 9  94584305.02209  24102733.400 8 125509257.14108  24102733.683 8 101986553.55108
C32  24569538.672 8 129113798.29408  24569545.848 9  96416174.96409  24569545.101 8 127940067.62508  24569545.474 8 103961786.99908
> 2022 12 01 00 23  0.0000000  0 16
C01                                                                  37978124.210 8 197762058.55808  37978124.581 8 160697873.18508
C02                                                                  38535672.583 8 200665359.53408  38535673.003 8 163057043.04508
C03                                                                  37661598.180 8 196113824.14208  37661598.480 8 159358547.70108
C04                                                                  38974293.302 8 202949372.99508  38974293.593 8 164912989.26008
C05                                                                  39896815.727 8 207753189.99008  39896816.072 8 168816485.06008
C06  38826147.623 8 204032784.72308  38826154.740 9 152362170.57909  38826154.138 8 202177971.53708  38826154.413 8 164286165.01708
C07  35917955.827 8 188750131.90408  35917962.991 9 140949801.46309  35917962.284 8 187034254.52508  35917962.586 8 151980653.65208
C09  37113798.451 8 195034328.07708  37113805.546 9 145642544.60809  37113804.774 8 193261321.07108  37113805.252 8 157040655.30508
C10  35943269.747 8 188883159.51808  35943276.902 9 141049138.77109  35943276.216 8 187166071.18108  35943276.586 8 152087766.48208
C11  25058230.075 8 131681886.57908  25058237.187 9  98333904.72609  25058236.498 8 130484812.73608  25058236.835 8 106029600.03808
C18  25204751.498 8 132451864.00008  25204758.657 9  98908887.37309  25204758.063 8 131247788.46908  25204758.314 8 106649580.31808
C19  25328357.576 8 133101418.22808  25328364.694 9  99393943.09909  25328363.956 8 131891437.78208  25328364.394 8 107172598.10908
C25  23915286.638 8 125675680.02208  23915293.699 9  93848748.98209  23915293.098 8 124533206.23208  23915293.393 8 101193432.24208
C26  21745505.716 8 114273403.44308  21745512.766 9  85334062.67709  21745512.161 8 113234587.53808  21745512.457 8  92012379.03708
C27  24114568.205 8 126722910.12308  24114575.331 9  94630772.95509  24114574.760 8 125570918.06208  24114575.028 8 102036658.10408
C32  24550098.648 8 129011639.74508  24550105.719 9  96339887.73709  24550105.078 8 127838837.78508  24550105.355 8 103879529.46608
> 2022 12 01 00 23 30.0000000  0 16
C01                                                                  37978034.589 7 197761591.72207  37978034.930 8 160697493.83908
C02                                                                  38535668.424 7 200665337.80507  38535668.845 8 163057025.39008
C03                                                                  37661317.263 7 196112361.33407  37661317.554 8 159357359.05908
C04                                                                  38974244.588 7 202949119.60907  38974244.932 8 164912783.37408
C05                                                                  39896813.581 7 207753178.48207  39896813.943 8 168816475.71308
C06  38836284.049 8 204086051.87408  38836291.155 9 152401947.99309  38836290.484 7 202230754.44107  38836290.808 8 164329055.44908
C07  35918824.179 8 188754695.05208  35918831.311 9 140953209.00609  35918830.573 7 187038776.19207  35918830.939 8 151984327.88208
C09  37110305.468 8 195015972.55808  37110312.627 8 145628837.56808  37110311.993 7 193243132.42507  37110312.315 8 157025875.54008
C10  35945003.046 8 188892267.65208  35945010.128 9 141055940.29909  35945009.555 7 187175096.51707  35945009.810 8 152095100.31108
C11  25072234.730 8 131755481.53608  25072241.807 9  98388861.99709  25072241.193 7 130557738.66007  25072241.492 8 106088858.32808
C18  25207051.843 8 132463952.62608  25207059.016 9  98917914.59209  25207058.420 7 131259767.19507  25207058.668 8 106659314.01708
C19  25343848.489 8 133182823.76508  25343855.646 9  99454732.94809  25343854.929 7 131972103.26907  25343855.338 8 107238145.42508
C25  23903184.321 8 125612082.56408  23903191.502 9  93801257.37609  23903190.780 7 124470186.93807  23903191.192 8 101142223.90108
C26  21745578.304 8 114273785.34208  21745585.466 9  85334347.85909  21745584.789 7 113234965.95907  21745585.093 8  92012686.53608
C27  24126432.630 8 126785258.31508  24126439.782 9  94677331.67109  24126439.092 7 125632699.45607  24126439.490 8 102086860.54408
C32  24530679.648 8 128909592.70208  24530686.794 9  96263683.77609  24530686.096 7 127737718.44207  24530686.438 8 103797361.71308
> 2022 12 01 00 24  0.0000000  0 16
C01                                                                  37977944.880 7 197761124.51907  37977945.198 8 160697114.20508
C02                                                                  38535664.212 7 200665315.01607  38535664.400 8 163057006.87508
C03                                                                  37661035.569 7 196110894.40107  37661035.856 8 159356167.05708
C04                                                                  38974195.887 7 202948866.22707  38974196.254 8 164912577.47708
C05                                                                  39896811.108 7 207753166.85907  39896811.689 8 168816466.27308
C06  38846430.168 8 204139370.30508  38846437.302 9 152441763.71009  38846436.669 7 202283588.16007  38846436.985 8 164371987.17908
C07  35919690.244 8 188759246.11808  35919697.379 9 140956607.52809  35919696.654 7 187043285.87907  35919696.980 8 151987992.37608
C09  37106830.477 8 194997711.05008  37106837.567 9 145615200.72609  37106836.867 7 193225036.92507  37106837.277 8 157011171.46908
C10  35946759.109 8 188901495.98808  35946766.212 9 141062831.58609  35946765.557 7 187184240.95507  35946765.915 8 152102530.91408
C11  25086275.758 8 131829267.73008  25086282.884 9  98443962.07909  25086282.182 7 130630854.08807  25086282.535 8 106148270.60408
C18  25209439.710 8 132476500.37808  25209446.777 9  98927284.66709  25209446.088 7 131272200.87807  25209446.461 8 106669417.40608
C19  25359359.603 8 133264334.96908  25359366.700 9  99515601.70409  25359366.004 7 132052873.45507  25359366.427 8 107303777.82308
C25  23891097.901 8 125548567.62008  23891105.017 9  93753827.38609  23891104.317 7 124407249.39907  23891104.707 8 101091081.99708
C26  21745690.349 8 114274374.06308  21745697.501 9  85334787.49009  21745696.825 7 113235549.32807  21745697.162 8  92013160.57808
C27  24138320.297 8 126847728.09108  24138327.410 9  94723981.17809  24138326.818 7 125694601.31607  24138327.106 8 102137160.88308
C32  24511282.454 8 128807659.59408  24511289.592 9  96187564.90209  24511288.853 7 127636712.00007  24511289.237 8 103715285.71108
> 2022 12 01 00 24 30.0000000  0 16
C01                                                                  37977855.036 8 197760657.00208  37977855.394 8 160696734.30608
C02                                                                  38535659.508 8 200665291.20108  38535659.924 8 163056987.52208
C03                                                                  37660753.034 8 196109423.37508  37660753.361 8 159354971.72608
C04                                                                  38974147.218 8 202948612.86208  38974147.572 8 164912371.59508
C05                                                                  39896809.073 8 207753155.14608  39896809.431 8 168816456.75308
C06  38856586.041 8 204192739.56308  38856593.138 9 152481617.37409  38856592.491 8 202336472.24208  38856592.798 8 164414959.81808
C07  35920553.938 8 188763784.91408  35920561.058 9 140959996.89109  35920560.328 8 187047783.42008  35920560.684 8 151991646.98908
C09  37103373.301 8 194979543.35408  37103380.375 9 145601633.94209  37103379.735 8 193207034.39608  37103380.055 8 156996542.93008
C10  35948538.091 8 188910844.84208  35948545.258 9 141069812.87809  35948544.632 8 187193504.82008  35948544.925 8 152110058.56508
C11  25100352.670 8 131903242.69408  25100359.840 9  98499203.12409  25100359.187 8 130704156.56708  25100359.514 8 106207834.87208
C18  25211914.621 8 132489506.42708  25211921.737 9  98936996.97809  25211921.098 8 131285088.69608  25211921.418 8 106679889.80908
C19  25374890.255 8 133345949.34908  25374897.400 9  99576547.51109  25374896.772 8 132133745.89108  25374897.103 8 107369493.29708
C25  23879027.198 8 125485135.67808  23879034.305 9  93706459.37909  23879033.758 8 124344394.11008  23879033.995 8 101040006.92208
C26  21745841.839 8 114275170.02808  21745848.945 9  85335381.88009  21745848.250 8 113236338.05908  21745848.605 8  92013801.47808
C27  24150231.036 8 126910319.49108  24150238.148 9  94770721.51109  24150237.557 8 125756623.70608  24150237.854 8 102187559.15008
C32  24491907.350 8 128705842.90708  24491914.536 9  96111532.95909  24491913.829 8 127535820.91608  24491914.146 8 103633303.43708
> 2022 12 01 00 25  0.0000000  0 16
C01                                                                  37977765.281 8 197760189.11708  37977765.572 8 160696354.11508
C02                                                                  38535654.848 7 200665266.31507  38535655.018 8 163056967.30608
C03                                                                  37660469.770 8 196107948.22008  37660470.070 8 159353773.04508
C04                                                                  38974098.571 8 202948359.48108  38974098.925 8 164912165.70308
C05                                                                  39896806.918 8 207753143.29608  39896807.111 8 168816447.13008
C06  38866751.437 8 204246159.09308  38866758.517 9 152521508.58409  38866757.860 7 202389406.14107  38866758.195 8 164457972.94908
C07  35921415.260 8 188768311.19108  35921422.372 9 140963376.90809  35921421.731 8 187052268.55408  35921421.988 8 151995291.52908
C09  37099933.887 8 194961469.21408  37099940.984 9 145588137.01909  37099940.328 8 193189124.56308  37099940.663 8 156981989.72908
C10  35950340.169 8 188920314.46808  35950347.255 9 141076884.35109  35950346.600 8 187202888.35808  35950346.925 8 152117683.46108
C11  25114465.127 8 131977403.88008  25114472.228 9  98554583.22909  25114471.744 8 130777643.57408  25114471.918 8 106267549.08408
C18  25214476.591 8 132502969.86108  25214483.745 9  98947050.83909  25214483.132 8 131298429.72508  25214483.438 8 106690730.49308
C19  25390440.113 8 133427664.34908  25390447.226 9  99637568.44909  25390446.534 8 132214718.02408  25390446.952 8 107435289.79008
C25  23866972.341 8 125421787.16208  23866979.477 9  93659153.67009  23866978.841 8 124281621.49308  23866979.182 8 100988999.02708
C26  21746032.846 8 114276173.57608  21746039.916 9  85336131.28409  21746039.240 8 113237332.48508  21746039.579 8  92014609.53708
C27  24162164.908 8 126973032.49508  24162172.024 9  94817552.65309  24162171.417 8 125818766.58908  24162171.728 8 102238055.33508
C32  24472554.924 8 128604145.02708  24472562.046 9  96035589.73709  24472561.293 8 127435047.56108  24472561.684 8 103551416.83508
> 2022 12 01 00 25 30.0000000  0 16
C01                                                                  37977675.295 8 197759720.88908  37977675.617 8 160695973.63508
C02                                                                  38535649.782 8 200665240.39208  38535650.126 8 163056946.23308
C03                                                                  37660185.540 8 196106468.96408  37660185.979 8 159352571.02308
C04                                                                  38974049.943 8 202948106.10508  38974050.247 8 164911959.81808
C05                                                                  39896804.593 8 207753131.33808  39896804.861 8 168816437.41008
C06  38876926.265 8 204299628.42608  38876933.381 9 152561436.97909  38876932.663 8 202442389.39108  38876933.049 8 164501026.17608
C07  35922274.137 8 188772824.77308  35922281.286 9 140966747.43509  35922280.553 8 187056741.10208  35922280.882 8 151998925.84108
C09  37096512.225 8 194943488.42508  37096519.332 9 145574709.80309  37096518.714 8 193171307.23408  37096519.046 8 156967511.69208
C10  35952165.210 8 188929905.17708  35952172.303 9 141084046.24009  35952171.635 8 187212391.87508  35952171.977 8 152125405.84608
C11  25128612.461 8 132051748.79408  25128619.618 9  98610100.53309  25128618.851 8 130851312.64508  25128619.269 8 106327411.23608
C18  25217125.484 8 132516889.80208  25217132.606 9  98957445.59709  25217131.955 8 131312223.12908  25217132.285 8 106701938.76108
C19  25406008.643 8 133509477.46408  25406015.752 9  99698662.65709  25406015.107 8 132295787.38408  25406015.443 8 107501165.28208
C25  23854933.520 8 125358522.57708  23854940.634 9  93611910.63109  23854939.954 8 124218932.03808  23854940.298 8 100938058.71008
C26  21746263.323 8 114277385.12108  21746270.464 9  85337036.00409  21746269.777 8 113238533.01608  21746270.130 8  92015585.06208
C27  24174121.958 8 127035867.14208  24174129.064 9  94864474.62209  24174128.500 8 125881030.01108  24174128.777 8 102288649.46008
C32  24453225.513 8 128502568.41808  24453232.641 9  95959737.07109  24453231.911 8 127334394.37608  24453232.294 8 103469627.87608
> 2022 12 01 00 26  0.0000000  0 16
C01                                                                  37977585.312 8 197759252.32408  37977585.657 8 160695592.88608
C02                                                                  38535644.854 8 200665213.42008  38535644.863 8 163056924.31408
C03                                                                  37659900.738 8 196104985.61208  37659901.132 8 159351365.67908
C04                                                                  38974001.314 8 202947852.73708  38974001.640 8 164911753.92908
C05                                                                  39896802.241 8 207753119.27208  39896802.581 8 168816427.60408
C06  38887110.536 8 204353147.06108  38887117.662 9 152601402.19509  38887117.002 8 202495421.49508  38887117.338 8 164544119.10508
C07  35923130.594 8 188777325.44808  35923137.741 9 140970108.33009  35923137.070 8 187061200.86408  35923137.364 8 152002549.76108
C09  37093108.367 8 194925600.76908  37093115.445 9 145561352.14009  37093114.823 8 193153582.19208  37093115.146 8 156953108.64408
C10  35954013.409 8 188939617.25508  35954020.466 9 141091298.76909  35954019.804 8 187222015.66108  35954020.119 8 152133225.96008
C11  25142794.335 8 132126274.93708  25142801.445 9  98665753.17309  25142800.801 8 130925161.28808  25142801.140 8 106387419.31008
C18  25219861.107 8 132531265.34008  25219868.195 9  98968180.58309  25219867.567 8 131326467.98008  25219867.893 8 106713513.86908
C19  25421595.393 8 133591386.18408  25421602.449 9  99759828.26209  25421601.884 8 132376951.47408  25421602.187 8 107567117.75908
C25  23842910.731 8 125295342.39008  23842917.847 9  93564730.62509  23842917.292 8 124156326.21608  23842917.546 8 100887186.34808
C26  21746533.580 8 114278805.05208  21746540.679 9  85338096.34709  21746540.031 8 113239940.04108  21746540.353 8  92016728.38708
C27  24186102.090 8 127098823.43908  24186109.253 9  94911487.44709  24186108.737 8 125943413.97908  24186108.925 8 102339341.54308
C32  24433919.667 8 128401115.52608  24433926.826 9  95883976.79909  24433926.124 8 127233863.78608  24433926.461 8 103387938.53308
> 2022 12 01 00 26 30.0000000  0 16
C01                                                                  37977493.653 6 197758783.42006  37977495.612 8 160695211.86508
C02                                                                  38535637.820 6 200665185.39906  38535639.569 8 163056901.55408
C03                                                                  37659613.562 6 196103498.17506  37659615.458 8 159350157.02008
C04                                                                  38973951.106 6 202947599.37806  38973952.958 8 164911548.05708
C05                                                                  39896798.323 6 207753107.08706  39896800.166 8 168816417.70908
C06  38897303.419 8 204406714.50308  38897311.194 9 152641403.85709  38897308.877 6 202548501.94606  38897310.890 8 164587251.32808
C07  35923983.940 8 188781813.01608  35923991.682 9 140973459.43809  35923989.357 6 187065647.63106  35923991.309 8 152006163.13108
C09  37089721.447 8 194907806.01708  37089729.201 9 145548063.85409  37089727.049 6 193135949.20906  37089728.883 8 156938780.40408
C10  35955884.000 8 188949450.99608  35955891.743 9 141098642.14909  35955889.604 6 187231760.00406  35955891.426 8 152141144.03608
C11  25157009.581 8 132200979.79608  25157017.307 9  98721539.26909  25157015.121 6 130999187.02506  25157017.001 8 106447571.28608
C18  25222682.534 8 132546095.55808  25222690.280 9  98979255.09609  25222688.182 6 131341163.37206  25222689.954 8 106725455.08108
C19  25437199.101 8 133673387.99608  25437206.902 9  99821063.38609  25437204.752 6 132458207.81306  25437206.592 8 107633145.19008
C25  23830903.415 8 125232247.09708  23830911.198 9  93517614.00809  23830909.084 6 124093804.50606  23830910.895 8 100836382.34408
C26  21746842.806 8 114280433.76808  21746850.600 9  85339312.59909  21746848.381 6 113241553.95006  21746850.258 8  92018039.82008
C27  24198104.824 8 127161901.41008  24198112.594 9  94958591.13009  24198110.343 6 126005918.50706  24198112.279 8 102390131.60208
C32  24414637.240 8 128299788.79508  24414644.965 9  95808310.73509  24414642.816 6 127133458.20406  24414644.605 8 103306350.77508
> 2022 12 01 00 27  0.0000000  0 16
C01                                                                  37977403.630 7 197758314.18407  37977405.482 8 160694830.57508
C02                                                                  38535632.079 7 200665156.32907  38535633.912 8 163056877.93208
C03                                                                  37659327.172 7 196102006.65307  37659329.060 8 159348945.03808
C04                                                                  38973902.433 7 202947346.02807  38973904.333 8 164911342.19108
C05                                                                  39896795.940 7 207753094.80207  39896797.814 8 168816407.72108
C06  38907506.165 8 204460330.23908  38907513.926 9 152681441.58009  38907511.667 7 202601630.27207  38907513.641 8 164630422.43908
C07  35924835.314 8 188786287.27708  35924843.122 9 140976800.60109  35924840.959 7 187070081.21107  35924842.736 8 152009765.77908
C09  37086352.914 8 194890103.95208  37086360.630 9 145534844.77509  37086358.531 7 193118408.06607  37086360.284 8 156924526.78708
C10  35957778.515 8 188959406.68108  35957786.253 9 141106076.58709  35957783.909 7 187241625.17607  35957785.954 8 152149160.29908
C11  25171258.917 8 132275860.85108  25171266.713 9  98777456.94109  25171264.649 7 131073387.35707  25171266.416 8 106507865.13608
C18  25225590.983 8 132561379.50108  25225598.748 9  98990668.42509  25225596.368 7 131356308.37107  25225598.394 8 106737761.63708
C19  25452820.797 8 133755480.38008  25452828.601 9  99882366.13509  25452826.477 7 132539553.89707  25452828.279 8 107699245.55008
C25  23818913.054 8 125169237.17408  23818920.811 9  93470561.14409  23818918.701 7 124031367.40607  23818920.518 8 100785647.08308
C26  21747192.606 8 114282271.66008  21747200.361 9  85340685.04609  21747198.187 7 113243375.12907  21747200.025 8  92019519.67808
C27  24210131.325 8 127225101.07308  24210139.091 9  95005785.67709  24210137.116 7 126068543.61307  24210138.776 8 102441019.63308
C32  24395379.792 8 128198590.66508  24395387.613 9  95732740.69909  24395385.353 7 127033180.05507  24395387.258 8 103224866.56208
> 2022 12 01 00 27 30.0000000  0 16
C01                                                                  37977313.232 7 197757844.62407  37977315.311 8 160694449.02008
C02                                                                  38535626.172 7 200665126.22907  38535628.202 8 163056853.46608
C03                                                                  37659039.736 7 196100511.07607  37659041.820 8 159347729.75608
C04                                                                  38973854.023 7 202947092.70307  38973855.651 8 164911136.33708
C05                                                                  39896793.677 7 207753082.40407  39896795.440 8 168816397.64708
C06  38917718.011 8 204513993.78508  38917725.776 9 152721515.00409  38917723.623 7 202654805.96707  38917725.436 8 164673632.04908
C07  35925684.177 8 188790748.03508  35925691.950 9 140980131.68709  35925689.695 7 187074501.42307  35925691.563 8 152013357.55908
C09  37083001.820 8 194872494.34108  37083009.623 9 145521694.74109  37083007.560 7 193100958.55107  37083009.280 8 156910347.61808
C10  35959696.244 8 188969484.60008  35959703.995 9 141113602.30509  35959701.743 7 187251611.48307  35959703.697 8 152157274.99008
C11  25185541.383 8 132350915.61008  25185549.138 9  98833504.32309  25185546.890 7 131147759.81907  25185548.837 8 106568298.84808
C18  25228585.522 8 132577116.22408  25228593.324 9  99002419.87709  25228591.251 7 131371902.03807  25228592.995 8 106750432.76308
C19  25468459.197 8 133837660.84008  25468466.992 9  99943734.65909  25468464.658 7 132620987.26907  25468466.681 8 107765416.82508
C25  23806938.973 8 125106313.13908  23806946.771 9  93423572.41309  23806944.625 7 123969015.39607  23806946.440 8 100734980.97108
C26  21747582.152 8 114284319.13708  21747589.950 9  85342214.00509  21747587.817 7 113245403.99207  21747589.630 8  92021168.29608
C27  24222180.943 8 127288422.43708  24222188.744 9  95053071.11009  24222186.431 7 126131289.33807  24222188.422 8 102492005.66308
C32  24376147.381 8 128097523.58708  24376155.178 9  95657268.52709  24376152.935 7 126933031.76807  24376154.825 8 103143487.87708
> 2022 12 01 00 28  0.0000000  0 16
C01                                                                  37977223.169 7 197757374.72707  37977225.078 8 160694067.18908
C02                                                                  38535620.457 7 200665095.07607  38535622.183 8 163056828.15208
C03                                                                  37658751.898 7 196099011.42407  37658753.839 8 159346511.15908
C04                                                                  38973805.090 7 202946839.37207  38973807.000 8 164910930.48908
C05                                                                  39896791.053 7 207753069.88707  39896793.074 8 168816387.47908
C06  38927938.831 8 204567704.61308  38927946.584 9 152761623.74209  38927944.339 7 202708028.51707  38927946.261 8 164716879.73008
C07  35926530.482 8 188795195.07808  35926538.224 9 140983452.53109  35926536.120 7 187078908.03807  35926537.809 8 152016938.29508
C09  37079668.435 8 194854976.95108  37079676.176 9 145508613.57109  37079673.948 7 193083600.40507  37079675.830 8 156896242.70808
C10  35961637.328 8 188979685.02808  35961645.119 9 141121219.50109  35961642.861 7 187261719.17707  35961644.782 8 152165488.31508
C11  25199856.418 8 132426141.52808  25199864.178 9  98889679.52509  25199862.039 7 131222301.88107  25199863.861 8 106628870.38108
C18  25231666.140 8 132593304.73408  25231673.896 9  99014508.69409  25231671.560 7 131387943.37507  25231673.561 8 106763467.66408
C19  25484113.894 8 133919926.84408  25484121.674 9 100005167.06209  25484119.478 7 132702505.39007  25484121.365 8 107831656.97808
C25  23794981.359 8 125043475.46208  23794989.135 9  93376648.17209  23794986.979 7 123906748.97107  23794988.856 8 100684384.39908
C26  21748011.801 8 114286576.58008  21748019.553 9  85343899.75709  21748017.455 7 113247640.91607  21748019.210 8  92022985.97808
C27  24234253.788 8 127351865.50708  24234261.556 9  95100447.42709  24234259.342 7 126194155.64707  24234261.244 8 102543089.69208
C32  24356940.368 8 127996589.98808  24356948.172 9  95581896.03409  24356945.966 7 126833015.74407  24356947.810 8 103062216.66808
> 2022 12 01 00 28 30.0000000  0 16
C01                                                                  37977133.057 7 197756904.47207  37977134.770 8 160693685.07008
C02                                                                  38535614.246 7 200665062.83707  38535616.030 8 163056801.96108
C03                                                                  37658463.268 7 196097507.66407  37658465.062 8 159345289.23908
C04                                                                  38973756.439 7 202946586.02707  38973758.348 8 164910724.62708
C05                                                                  39896788.678 7 207753057.22807  39896790.601 8 168816377.19308
C06  38938168.534 8 204621462.19608  38938176.326 9 152801767.39409  38938174.146 7 202761297.39107  38938175.998 8 164760165.05808
C07  35927374.033 8 188799628.18408  35927381.778 9 140986762.96509  35927379.526 7 187083300.84707  35927381.415 8 152020507.81208
C09  37076352.452 8 194837551.51308  37076360.238 9 145495601.07209  37076358.025 7 193066333.38107  37076359.911 8 156882211.83608
C10  35963601.818 8 188990008.20108  35963609.547 9 141128928.37109  35963607.281 7 187271948.50407  35963609.206 8 152173800.48508
C11  25214203.489 8 132501536.07408  25214211.277 9  98945980.64609  25214209.222 7 131297011.03107  25214210.973 8 106689577.68708
C18  25234832.495 8 132609943.99908  25234840.240 9  99026934.12509  25234838.113 7 131404431.37807  25234839.915 8 106776865.51508
C19  25499784.418 8 134002275.84708  25499792.168 9 100066661.45309  25499789.827 7 132784105.76607  25499791.870 8 107897963.97208
C25  23783040.248 8 124980724.61708  23783048.067 9  93329788.78009  23783045.838 7 123844568.58907  23783047.781 8 100633857.74608
C26  21748481.343 8 114289044.36008  21748489.116 9  85345742.58309  21748486.850 7 113250086.26207  21748488.826 8  92024973.02608
C27  24246349.731 8 127415430.27208  24246357.515 9  95147914.62209  24246355.233 7 126257142.54207  24246357.204 8 102594271.70608
C32  24337759.203 8 127895792.28108  24337766.989 9  95506625.02409  24337764.798 7 126733134.37707  24337766.651 8 102981054.87808
> 2022 12 01 00 29  0.0000000  0 16
C01                                                                  37977042.681 7 197756433.90407  37977044.412 8 160693302.69408
C02                                                                  38535607.820 7 200665029.57307  38535609.681 8 163056774.92608
C03                                                                  37658173.731 7 196095999.87707  37658175.497 8 159344064.03708
C04                                                                  38973707.904 7 202946332.71007  38973709.697 8 164910518.78608
C05                                                                  39896786.295 7 207753044.47807  39896788.191 8 168816366.82908
C06  38948407.108 8 204675266.08008  38948414.886 9 152841945.61609  38948412.753 7 202814612.14607  38948414.545 8 164803487.66408
C07  35928214.925 8 188804047.20708  35928222.737 9 140990062.88909  35928220.379 7 187087679.70007  35928222.311 8 152024065.98608
C09  37073053.957 8 194820217.85008  37073061.763 9 145482657.10809  37073059.568 7 193049157.29607  37073061.420 8 156868254.86308
C10  35965589.577 8 189000454.46508  35965597.392 9 141136729.15009  35965595.181 7 187282299.80407  35965597.094 8 152182211.76108
C11  25228582.233 8 132577096.77008  25228590.005 9  99002405.83809  25228587.769 7 131371884.82407  25228589.696 8 106750418.77608
C18  25238084.406 8 132627033.07108  25238092.181 9  99039695.44409  25238089.908 7 131421365.09907  25238091.856 8 106790625.54808
C19  25515470.236 8 134084705.40808  25515477.993 9 100128215.99309  25515475.872 7 132865785.96107  25515477.707 8 107964335.82208
C25  23771115.857 8 124918061.17608  23771123.601 9  93282994.65309  23771121.487 7 123782474.81207  23771123.310 8 100583401.46608
C26  21748991.117 8 114291722.93908  21748998.882 9  85347742.81909  21748996.727 7 113252740.49007  21748998.528 8  92027129.80108
C27  24258468.904 8 127479116.78508  24258476.656 9  95195472.73609  24258474.466 7 126320250.08907  24258476.348 8 102645551.75608
C32  24318604.406 8 127795132.96508  24318612.172 9  95431457.34909  24318609.941 7 126633390.14707  24318611.813 8 102900004.51508
> 2022 12 01 00 29 30.0000000  0 16
C01                                                                  37976952.305 7 197755963.01607  37976953.960 8 160692920.06008
C02                                                                  38535601.309 7 200664995.26307  38535603.027 8 163056747.05108
C03                                                                  37657883.147 7 196094488.04607  37657885.177 8 159342835.55108
C04                                                                  38973659.212 7 202946079.41807  38973661.077 8 164910312.96008
C05                                                                  39896783.795 7 207753031.62007  39896785.678 8 168816356.37908
C06  38958654.357 8 204729115.74208  38958662.122 9 152882158.03009  38958659.950 7 202867972.26507  38958661.814 8 164846847.13008
C07  35929053.109 8 188808451.94208  35929060.890 9 140993352.14009  35929058.611 7 187092044.39307  35929060.513 8 152027612.65808
C09  37069772.835 8 194802975.72008  37069780.661 9 145469781.49109  37069778.395 7 193032071.91107  37069780.360 8 156854371.58608
C10  35967600.977 8 189011024.08108  35967608.710 9 141144622.04709  35967606.597 7 187292773.32607  35967608.372 8 152190722.35608
C11  25242992.111 8 132652821.08308  25242999.857 9  99058953.22209  25242997.591 7 131446920.74507  25242999.570 8 106811391.61408
C18  25241421.753 8 132644570.90808  25241429.545 9  99052791.88309  25241427.397 7 131438743.49407  25241429.189 8 106804746.92608
C19  25531170.936 8 134167212.99708  25531178.659 9 100189828.80709  25531176.539 7 132947543.48107  25531178.378 8 108030770.50608
C25  23759208.143 8 124855485.63908  23759215.896 9  93236266.16809  23759213.748 7 123720468.14107  23759215.561 8 100533015.96608
C26  21749541.052 8 114294612.70208  21749548.781 9  85349900.76009  21749546.495 7 113255603.98307  21749548.439 8  92029456.62608
C27  24270611.295 8 127542925.05308  24270618.972 9  95243121.77009  24270616.871 7 126383478.28007  24270618.664 8 102696929.83908
C32  24299476.354 8 127694614.46108  24299484.113 9  95356394.83309  24299481.807 7 126533785.44707  24299483.757 8 102819067.53908
> 2022 12 01 00 30  0.0000000  0 16
C01                                                                  37976861.754 7 197755491.81107  37976863.494 8 160692537.16808
C02                                                                  38535594.338 7 200664959.91207  38535596.243 8 163056718.32608
C03                                                                  37657592.138 7 196092972.17407  37657594.075 8 159341603.78508
C04                                                                  38973610.418 7 202945826.13807  38973612.462 8 164910107.15408
C05                                                                  39896781.479 7 207753018.64507  39896783.237 8 168816345.83608
C06  38968910.183 8 204783010.66608  38968917.990 9 152922404.24109  38968915.849 7 202921377.24107  38968917.661 8 164890243.04808
C07  35929888.583 8 188812842.19708  35929896.334 9 140996630.57709  35929894.080 7 187096394.73907  35929895.953 8 152031147.67408
C09  37066509.165 8 194785824.88508  37066516.977 9 145456974.04309  37066515.022 7 193015076.98807  37066516.651 8 156840561.82008
C10  35969635.819 8 189021717.31308  35969643.570 9 141152607.25409  35969641.382 7 187303369.34707  35969643.257 8 152199332.49308
C11  25257432.589 8 132728706.49908  25257440.379 9  99115620.89709  25257438.128 7 131522116.30907  25257440.077 8 106872494.16608
C18  25244844.280 8 132662556.45608  25244852.059 9  99066222.64609  25244849.646 7 131456565.54007  25244851.746 8 106819228.79608
C19  25546885.886 8 134249796.11908  25546893.715 9 100251498.01609  25546891.677 7 133029375.83907  25546893.442 8 108097265.99908
C25  23747317.188 8 124792998.51708  23747324.974 9  93189603.70409  23747322.841 7 123658549.07607  23747324.647 8 100482701.65608
C26  21750131.148 8 114297714.05508  21750138.933 9  85352216.70409  21750136.781 7 113258677.14907  21750138.593 8  92031953.82208
C27  24282776.715 8 127606855.08608  24282784.437 9  95290861.72609  24282782.408 7 126446827.12307  24282784.142 8 102748405.96808
C32  24280375.610 8 127594239.21608  24280383.348 9  95281439.29409  24280381.172 7 126434322.70607  24280383.014 8 102738245.91608
> 2022 12 01 00 30 30.0000000  0 16
C01                                                                  37976771.141 7 197755020.27107  37976772.935 8 160692154.00408
C02                                                                  38535587.488 7 200664923.50307  38535589.321 8 163056688.73608
C03                                                                  37657300.382 7 196091452.26007  37657302.185 8 159340368.72708
C04                                                                  38973562.044 7 202945572.87307  38973563.801 8 164909901.35408
C05                                                                  39896778.702 7 207753005.54707  39896780.719 8 168816335.19608
C06  38979174.737 8 204836950.34208  38979182.359 9 152962683.86509  38979180.195 7 202974826.55207  38979182.042 8 164933674.99008
C07  35930721.344 8 188817217.77608  35930728.990 9 140999898.05009  35930726.764 7 187100730.53807  35930728.602 8 152034670.86708
C09  37063262.948 8 194768765.08708  37063270.612 9 145444234.58409  37063268.548 7 192998172.27907  37063270.297 8 156826825.36308
C10  35971694.352 8 189032534.42908  35971702.014 9 141160684.96909  35971699.898 7 187314088.12307  35971701.678 8 152208042.37908
C11  25271903.387 8 132804750.48008  25271911.060 9  99172406.98309  25271908.978 7 131597468.99907  25271910.766 8 106933724.39208
C18  25248351.958 8 132680988.64808  25248359.604 9  99079986.94509  25248357.460 7 131474830.16607  25248359.277 8 106834070.30108
C19  25562614.950 8 134332452.24608  25562622.673 9 100313221.74609  25562620.569 7 133111280.54807  25562622.367 8 108163820.28008
C25  23735443.298 8 124730600.32308  23735450.989 9  93143007.64609  23735448.957 7 123596718.14007  23735450.677 8 100432458.95208
C26  21750761.816 8 114301027.40008  21750769.412 9  85354690.95409  21750767.231 7 113261960.36407  21750769.110 8  92034621.70808
C27  24294965.438 8 127670906.87808  24294973.085 9  95338692.60809  24294970.888 7 126510296.62607  24294972.803 8 102799980.13408
C32  24261302.648 8 127494009.66208  24261310.277 9  95206592.54309  24261308.016 7 126335004.32207  24261309.947 8 102657541.59308
> 2022 12 01 00 31  0.0000000  0 16
C01                                                                  37976681.016 9 197754548.41109  37976682.300 8 160691770.57508
C02                                                                  38535580.762 9 200664886.03309  38535582.059 8 163056658.29608
C03                                                                  37657008.175 9 196089928.31009  37657009.517 8 159339130.39408
C04                                                                  38973513.840 8 202945319.60808  38973515.173 8 164909695.55808
C05                                                                  39896776.757 9 207752992.32809  39896778.148 8 168816324.45108
C06  38989447.582 8 204890934.24508  38989455.160 9 153002996.52209  38989453.538 8 203028319.69908  38989454.826 8 164977142.55208
C07  35931551.230 8 188821578.47508  35931558.814 9 141003154.42309  35931557.139 9 187105051.60109  35931558.403 8 152038182.08108
C09  37060033.924 8 194751796.08908  37060041.519 9 145431562.93309  37060039.813 9 192981357.55009  37060041.204 8 156813162.01108
C10  35973776.550 8 189043475.69708  35973784.079 9 141168855.39809  35973782.319 9 187324929.92709  35973783.732 8 152216852.22908
C11  25286403.880 8 132880950.49408  25286411.451 9  99229309.59509  25286409.936 8 131672976.29808  25286411.142 8 106995080.26108
C18  25251944.315 8 132699866.40408  25251951.902 9  99094083.97009  25251950.297 8 131493536.30808  25251951.588 8 106849270.57008
C19  25578357.454 8 134415178.88208  25578365.016 9 100374998.13209  25578363.520 8 133193255.12108  25578364.712 8 108230431.33908
C25  23723586.463 8 124668291.58608  23723594.026 9  93096478.39809  23723592.338 8 123534975.84408  23723593.719 8 100382288.28008
C26  21751432.774 8 114304553.13708  21751440.379 9  85357323.80909  21751438.685 8 113265454.05708  21751440.033 8  92037460.61608
C27  24307177.345 8 127735080.43408  24307184.937 9  95386614.42309  24307183.292 8 126573886.78608  24307184.623 8 102851652.34708
C32  24242257.878 8 127393928.22708  24242265.437 9  95131856.41009  24242263.743 8 126235832.72308  24242265.088 8 102576956.54608
> 2022 12 01 00 31 30.0000000  0 16
C01                                                                  37976590.729 8 197754076.24608  37976591.628 8 160691386.90608
C02                                                                  38535573.697 8 200664847.53708  38535574.605 8 163056627.00908
C03                                                                  37656715.271 8 196088400.36308  37656716.103 8 159337888.80908
C04                                                                  38973465.591 8 202945066.39308  38973466.494 8 164909489.79408
C05                                                                  39896774.901 8 207752979.01408  39896775.586 8 168816313.63908
C06  38999729.009 8 204944961.91408  38999736.289 9 153043341.85509  38999735.144 8 203081856.19908  38999735.948 8 165020645.34208
C07  35932378.496 8 188825924.15408  35932385.751 9 141006399.56809  35932384.457 8 187109357.77308  35932385.348 8 152041681.19908
C09  37056822.386 8 194734917.69208  37056829.654 9 145418958.93109  37056828.468 8 192964632.58508  37056829.325 8 156799571.60808
C10  35975882.502 8 189054541.42108  35975889.807 9 141177118.75809  35975888.632 8 187335895.05008  35975889.488 8 152225762.28808
C11  25300933.747 8 132957304.05608  25300941.053 9  99286326.86409  25300939.829 8 131748635.75008  25300940.768 8 107056559.76508
C18  25255621.515 8 132719188.66108  25255628.797 9  99108512.92609  25255627.652 8 131512682.90808  25255628.494 8 106864828.75308
C19  25594113.028 8 134497973.56108  25594120.317 9 100436825.32609  25594119.166 8 133275297.11908  25594120.029 8 108297097.17908
C25  23711746.960 8 124606072.87108  23711754.192 9  93050016.37309  23711752.975 8 123473322.75208  23711753.886 8 100332190.09508
C26  21752144.510 8 114308291.71908  21752151.761 9  85360115.60609  21752150.532 8 113269158.65308  21752151.461 8  92040470.90308
C27  24319412.578 8 127799375.80308  24319419.943 9  95434627.19609  24319418.796 8 126637597.64508  24319419.599 8 102903422.64108
C32  24223241.953 8 127293997.39508  24223249.188 9  95057232.73509  24223247.904 8 126136810.35108  24223248.895 8 102496492.75408
> 2022 12 01 00 32  0.0000000  0 16
C01                                                                  37976500.005 8 197753603.78108  37976500.877 8 160691002.98108
C02                                                                  38535566.140 8 200664808.00008  38535567.151 8 163056594.87508
C03                                                                  37656420.913 8 196086868.40308  37656421.897 8 159336643.96008
C04                                                                  38973416.886 8 202944813.19708  38973417.883 8 164909284.05608
C05                                                                  39896772.160 8 207752965.59808  39896772.979 8 168816302.73208
C06  39010018.322 8 204999032.79808  39010025.633 9 153083719.46509  39010024.312 8 203135435.53208  39010025.296 8 165064182.93908
C07  35933202.538 8 188830254.60208  35933209.827 9 141009633.34509  35933208.541 8 187113648.85708  35933209.423 8 152045168.05108
C09  37053627.661 8 194718129.62508  37053634.985 9 145406422.39109  37053633.780 8 192947997.13908  37053634.657 8 156786053.94308
C10  35978011.995 8 189065731.84508  35978019.263 9 141185475.24709  35978018.046 8 187346983.74708  35978018.932 8 152234772.76108
C11  25315492.095 8 133033808.62508  25315499.371 9  99343456.90009  25315498.239 8 131824444.83708  25315499.077 8 107118160.85308
C18  25259382.822 8 132738954.29008  25259390.056 9  99123272.97709  25259388.904 8 131532268.85608  25259389.779 8 106880743.93708
C19  25609880.785 8 134580833.76408  25609888.085 9 100498701.45509  25609886.822 8 133357404.04908  25609887.775 8 108363815.78208
C25  23699924.310 8 124543944.70508  23699931.621 9  93003621.96109  23699930.425 8 123411759.38708  23699931.301 8 100282164.81308
C26  21752896.537 8 114312243.53208  21752903.798 9  85363066.63809  21752902.578 8 113273074.54708  21752903.476 8  92043652.88508
C27  24331670.804 8 127863792.96808  24331678.085 9  95482730.92409  24331676.954 8 126701429.19908  24331677.791 8 102955291.00308
C32  24204254.894 8 127194219.58108  24204262.132 9  94982723.33209  24204260.849 8 126037939.61008  24204261.786 8 102416152.17808
> 2022 12 01 00 32 30.0000000  0 16
C01                                                                  37976409.776 8 197753130.96608  37976410.081 8 160690618.79108
C02                                                                  38535558.959 8 200664767.37908  38535559.308 8 163056561.87208
C03                                                                  37656126.649 8 196085332.40608  37656126.926 8 159335395.84008
C04                                                                  38973368.914 8 202944560.00508  38973369.255 8 164909078.30708
C05                                                                  39896770.058 8 207752952.02108  39896770.421 8 168816291.70508
C06  39020315.913 8 205053146.35508  39020323.094 9 153124128.94009  39020322.441 8 203189057.14908  39020322.775 8 165107754.89408
C07  35934023.837 8 188834569.60808  35934030.968 9 141012855.58809  35934030.228 8 187117924.63308  35934030.537 8 152048642.47308
C09  37050450.357 8 194701431.61808  37050457.451 9 145393953.09509  37050456.844 8 192931450.92908  37050457.125 8 156772608.79208
C10  35980165.400 8 189077047.21008  35980172.510 9 141193925.02809  35980171.856 8 187358196.23808  35980172.193 8 152243883.83408
C11  25330078.798 8 133110461.63308  25330085.956 9  99400697.78209  25330085.297 8 131900401.01208  25330085.673 8 107179881.47208
C18  25263228.387 8 132759162.13308  25263235.504 9  99138363.24509  25263234.915 8 131552292.99008  25263235.185 8 106897015.18608
C19  25625660.758 8 134663756.96908  25625667.864 9 100560624.62709  25625667.299 8 133439573.40208  25625667.552 8 108430585.11508
C25  23688119.236 8 124481907.58908  23688126.345 9  92957295.54209  23688125.664 8 123350286.24408  23688126.053 8 100232212.85108
C26  21753689.373 8 114316408.96308  21753696.451 9  85366177.18409  21753695.866 8 113277202.11108  21753696.132 8  92047006.86908
C27  24343952.333 8 127928331.90008  24343959.453 9  95530925.58109  24343958.734 8 126765381.41308  24343959.152 8 103007257.41708
C32  24185297.511 8 127094597.19608  24185304.640 9  94908329.98709  24185303.919 8 125939222.87908  24185304.268 8 102335936.75008
> 2022 12 01 00 33  0.0000000  0 16
C01                                                                  37976318.931 8 197752657.86508  37976319.248 8 160690234.34708
C02                                                                  38535550.825 8 200664725.73808  38535551.236 8 163056528.03408
C03                                                                  37655830.828 8 196083792.42808  37655831.182 8 159334144.48408
C04                                                                  38973320.411 8 202944306.83708  38973320.666 8 164908872.59808
C05                                                                  39896767.456 8 207752938.37108  39896767.774 8 168816280.60608
C06  39030621.462 8 205107302.13008  39030628.596 9 153164569.94009  39030628.010 8 203242720.59508  39030628.279 8 165151360.84208
C07  35934841.955 8 188838869.03308  35934849.077 9 141016066.20009  35934848.352 8 187122184.98608  35934848.698 8 152052104.35508
C09  37047289.937 8 194684823.47408  37047297.074 9 145381550.91309  37047296.382 8 192914993.76808  37047296.695 8 156759236.00108
C10  35982342.485 8 189088487.81908  35982349.581 9 141202468.34509  35982348.951 8 187369532.84608  35982349.253 8 152253095.75208
C11  25344693.158 8 133187260.61508  25344700.328 9  99458047.67609  25344699.696 8 131976501.84008  25344700.020 8 107241719.62408
C18  25267157.770 8 132779811.09808  25267164.859 9  99153782.93209  25267164.260 8 131572754.23508  25267164.560 8 106913641.62708
C19  25641452.060 8 134746740.73908  25641459.135 9 100622593.02509  25641458.499 8 133521802.76908  25641458.824 8 108497403.21108
C25  23676331.362 8 124419962.13408  23676338.528 9  92911037.57809  23676337.841 8 123288903.92608  23676338.197 8 100182334.68908
C26  21754522.693 8 114320788.48308  21754529.848 9  85369447.60609  21754529.238 8 113281541.82108  21754529.502 8  92050533.23808
C27  24356256.836 8 127992992.66708  24356263.979 9  95579211.21909  24356263.312 8 126829454.34808  24356263.665 8 103059321.92308
C32  24166370.065 8 126995132.72308  24166377.189 9  94834054.57409  24166376.529 8 125840662.63308  24166376.813 8 102255848.47308
> 2022 12 01 00 33 30.0000000  0 16
C01                                                                  37976228.076 8 197752184.44608  37976228.345 8 160689849.66208
C02                                                                  38535542.762 8 200664683.02808  38535543.058 8 163056493.34008
C03                                                                  37655534.369 8 196082248.44608  37655534.691 8 159332889.87208
C04                                                                  38973271.724 8 202944053.69308  38973272.082 8 164908666.89908
C05                                                                  39896764.929 8 207752924.58608  39896765.144 8 168816269.40708
C06  39040934.943 8 205161499.56408  39040942.031 9 153205042.05009  39040941.347 8 203296425.32708  39040941.705 8 165195000.33508
C07  35935657.088 8 188843152.67908  35935664.268 9 141019265.02809  35935663.538 8 187126429.68608  35935663.854 8 152055553.52608
C09  37044146.544 8 194668304.91608  37044153.663 9 145369215.62809  37044152.966 8 192898625.38008  37044153.358 8 156745935.34708
C10  35984543.470 8 189100053.91108  35984550.541 9 141211105.36509  35984549.942 8 187380993.79008  35984550.232 8 152262408.71308
C11  25359334.881 8 133264203.01208  25359341.960 9  99515504.66009  25359341.371 8 132052744.76908  25359341.709 8 107303673.25108
C18  25271170.843 8 132800899.99208  25271177.961 9  99169531.13309  25271177.353 8 131593651.41808  25271177.617 8 106930622.29408
C19  25657254.351 8 134829782.54208  25657261.489 9 100684604.76009  25657260.833 8 133604089.64108  25657261.183 8 108564268.03508
C25  23664561.161 8 124358108.86208  23664568.242 9  92864848.44209  23664567.582 8 123227612.95408  23664567.936 8 100132530.75208
C26  21755396.981 8 114325382.47108  21755404.055 9  85372878.18409  21755403.409 8 113286094.04808  21755403.711 8  92054232.29808
C27  24368584.614 8 128057775.22908  24368591.707 9  95627587.80809  24368591.114 8 126893647.97508  24368591.400 8 103111484.50808
C32  24147473.070 8 126895828.57308  24147480.240 9  94759898.87709  24147479.511 8 125742261.24808  24147479.888 8 102175889.29108
> 2022 12 01 00 34  0.0000000  0 16
C01                                                                  37976137.034 8 197751710.74708  37976137.347 8 160689464.74208
C02                                                                  38535534.450 8 200664639.30108  38535534.593 8 163056457.79108
C03                                                                  37655237.100 8 196080700.50208  37655237.409 8 159331632.03908
C04                                                                  38973223.139 8 202943800.59808  38973223.431 8 164908461.23508
C05                                                                  39896762.094 8 207752910.71108  39896762.511 8 168816258.13208
C06  39051256.144 8 205215738.18208  39051263.284 9 153245544.91509  39051262.612 8 203350170.86908  39051262.931 8 165238672.98908
C07  35936469.233 8 188847420.39608  35936476.343 9 141022451.95709  35936475.589 8 187130658.60608  35936475.960 8 152058989.87008
C09  37041020.191 8 194651875.73808  37041027.300 9 145356947.08209  37041026.622 8 192882345.55708  37041026.980 8 156732706.65208
C10  35986768.279 8 189111745.78408  35986775.425 9 141219836.30409  35986774.713 8 187392579.37208  35986775.093 8 152271822.93908
C11  25374003.319 8 133341286.32608  25374010.423 9  99573066.87209  25374009.787 8 132129127.34408  25374010.129 8 107365740.34408
C18  25275267.419 8 132822427.67908  25275274.530 9  99185607.00109  25275273.914 8 131614983.40108  25275274.192 8 106947956.28008
C19  25673067.253 8 134912879.92708  25673074.346 9 100746658.00409  25673073.711 8 133686431.59508  25673074.034 8 108631177.61608
C25  23652808.412 8 124296348.36108  23652815.564 9  92818728.58709  23652814.870 8 123166413.90708  23652815.242 8 100082801.51608
C26  21756312.055 8 114330191.38808  21756319.147 9  85376469.25509  21756318.527 8 113290859.25108  21756318.816 8  92058104.41208
C27  24380935.496 8 128122679.63308  24380942.565 9  95676055.38309  24380941.919 8 126957962.33608  24380942.264 8 103163745.19108
C32  24128607.106 8 126796687.22208  24128614.243 9  94685864.75109  24128613.516 8 125644021.17908  24128613.868 8 102096061.18408
> 2022 12 01 00 34 30.0000000  0 15
C01                                                                  37976046.023 8 197751236.71908  37976046.341 8 160689079.54908
C02                                                                  38535525.788 8 200664594.49108  38535526.048 8 163056421.38708
C03                                                                  37654939.097 8 196079148.55008  37654939.380 8 159330370.94808
C04                                                                  38973174.470 8 202943547.50308  38973174.842 8 164908255.57508
C05                                                                  39896759.425 8 207752896.69708  39896759.796 8 168816246.74208
C06  39061585.135 8 205270017.41408  39061592.270 9 153286078.10709  39061591.649 8 203403956.65308  39061591.974 8 165282378.34208
C07  35937278.344 8 188851671.95408  35937285.390 9 141025626.82209  35937284.756 8 187134871.51708  35937285.000 8 152062413.20208
C09  37037910.730 8 194635535.63008  37037917.862 9 145344745.05409  37037917.208 8 192866153.99408  37037917.536 8 156719549.68208
C10  35989017.206 8 189123563.63708  35989024.290 9 141228661.32509  35989023.617 8 187404289.78708  35989023.967 8 152281338.61308
C11  25388698.096 8 133418507.98308  25388705.209 9  99630732.39609  25388704.634 8 132205646.99308  25388704.941 8 107427918.83008
C18  25279447.293 8 132844392.91508  25279454.360 9  99202009.61509  25279453.705 8 131636748.94608  25279454.048 8 106965642.57008
C25  23641073.592 8 124234681.14808  23641080.701 9  92772678.39809  23641080.067 8 123105307.30608  23641080.403 8 100033147.39208
C26  21757268.144 8 114335215.59808  21757275.236 9  85380221.10409  21757274.586 8 113295837.78908  21757274.912 8  92062149.88208
C27  24393309.582 8 128187705.82908  24393316.683 9  95724613.90409  24393315.981 8 127022397.38008  24393316.357 8 103216103.94108
C32  24109772.600 8 126697711.04208  24109779.691 9  94611953.96809  24109778.997 8 125545944.78308  24109779.345 8 102016366.08008
> 2022 12 01 00 35  0.0000000  0 16
C01                                                                  37975954.923 8 197750762.39608  37975955.254 8 160688694.13208
C02                                                                  38535516.966 8 200664548.66008  38535517.283 8 163056384.14408
C03                                                                  37654640.254 8 196077592.63608  37654640.581 8 159329106.64708
C04                                                                  38973125.900 8 202943294.45008  38973126.235 8 164908049.95208
C05                                                                  39896756.778 8 207752882.57208  39896757.051 8 168816235.26908
C06  39071921.828 8 205324336.77708  39071928.905 9 153326641.27009  39071928.243 8 203457782.20108  39071928.604 8 165326116.01408
C07  35938084.218 8 188855907.22308  35938091.351 9 141028789.52509  35938090.663 8 187139068.28708  35938090.949 8 152065823.42208
C09  37034818.300 8 194619284.38908  37034825.380 9 145332609.38909  37034824.768 8 192850050.48808  37034825.058 8 156706464.26608
C10  35991290.075 8 189135507.77008  35991297.171 9 141237580.64609  35991296.534 8 187416125.33508  35991296.853 8 152290955.97108
C11  25403418.792 8 133495865.49008  25403425.875 9  99688499.37009  25403425.220 8 132282301.26708  25403425.602 8 107490206.71008
C18  25283710.171 8 132866794.53508  25283717.295 9  99218738.09209  25283716.624 8 131658946.91708  25283716.945 8 106983680.24108
C25  23629356.644 8 124173107.83908  23629363.715 9  92726698.32809  23629363.083 8 123044293.75108  23629363.380 8  99983568.88708
C26  21758265.267 8 114340455.56708  21758272.380 9  85384134.06809  21758271.651 8 113301030.12508  21758272.041 8  92066369.08708
C27  24405706.843 8 128252853.85508  24405713.941 9  95773263.40809  24405713.371 8 127086953.14708  24405713.616 8 103268560.79308
C32  24090970.007 8 126598902.51708  24090977.056 9  94538168.38009  24090976.356 8 125448034.51408  24090976.739 8 101936805.97308
C33  22356545.579 8 117484439.80018  22356552.660 9  87731914.50019  22356552.046 8 116416432.77118  22356552.388 8  94597888.92718
> 2022 12 01 00 35 30.0000000  0 16
C01                                                                  37975863.872 8 197750287.78408  37975864.095 8 160688308.46608
C02                                                                  38535507.991 8 200664501.77308  38535508.295 8 163056346.04908
C03                                                                  37654340.718 8 196076032.77308  37654341.023 8 159327839.12008
C04                                                                  38973077.213 8 202943041.43208  38973077.620 8 164907844.35608
C05                                                                  39896754.023 8 207752868.34408  39896754.381 8 168816223.69908
C06  39082265.983 8 205378695.74808  39082273.105 9 153367234.00809  39082272.483 8 203511646.99908  39082272.736 8 165369885.57208
C07  35938887.051 8 188860126.02308  35938894.155 9 141031939.92709  35938893.449 8 187143248.73408  35938893.774 8 152069220.37708
C09  37031742.582 8 194603121.75108  37031749.726 9 145320539.88809  37031749.092 8 192834034.78408  37031749.404 8 156693450.19508
C10  35993587.028 8 189147578.43008  35993594.150 9 141246594.45009  35993593.490 8 187428086.26008  35993593.829 8 152300675.19908
C11  25418164.764 8 133573356.32108  25418171.880 9  99746365.89509  25418171.236 8 132359087.64308  25418171.612 8 107552601.92908
C18  25288055.829 8 132889631.30408  25288062.954 9  99235791.52509  25288062.339 8 131681576.08008  25288062.634 8 107002068.28308
C25  23617657.496 8 124111629.00108  23617664.673 9  92680788.80309  23617663.977 8 122983373.80508  23617664.370 8  99934066.43408
C26  21759303.483 8 114345911.71908  21759310.632 9  85388208.46309  21759309.975 8 113306436.67408  21759310.321 8  92070762.34608
C27  24418127.237 8 128318123.70808  24418134.371 9  95822003.87809  24418133.777 8 127151629.63608  24418134.063 8 103321115.73508
C32  24072199.678 8 126500264.07108  24072206.788 9  94464509.79909  24072206.104 8 125350292.77908  24072206.439 8 101857382.80108
C33  22351950.729 8 117460293.93808  22351957.849 9  87713883.50109  22351957.213 8 116392506.42408  22351957.578 8  94578446.80808
> 2022 12 01 00 36  0.0000000  0 16
C01                                                                  37975772.557 8 197749812.85008  37975772.892 8 160687922.54608
C02                                                                  38535498.735 8 200664453.81508  38535499.106 8 163056307.07808
C03                                                                  37654040.413 8 196074468.91508  37654040.704 8 159326568.36108
C04                                                                  38973028.691 8 202942788.42608  38973029.031 8 164907638.75908
C05                                                                  39896751.125 8 207752853.97908  39896751.600 8 168816212.02708
C06  39092617.543 8 205433093.77208  39092624.674 9 153407855.90609  39092624.021 8 203565550.49608  39092624.354 8 165413686.58308
C07  35939686.694 8 188864328.14808  35939693.773 9 141035077.87909  35939693.038 8 187147412.66408  35939693.410 8 152072603.91108
C09  37028683.783 8 194587047.43908  37028690.880 9 145308536.34309  37028690.238 8 192818106.59908  37028690.561 8 156680507.24008
C10  35995908.129 8 189159775.83808  35995915.240 9 141255702.90609  35995914.584 8 187440172.78908  35995914.903 8 152310496.49208
C11  25432935.667 8 133650977.91008  25432942.790 9  99804330.06909  25432942.163 8 132436003.59608  25432942.503 8 107615102.44208
C18  25292484.137 8 132912901.95308  25292491.190 9  99253168.95809  25292490.560 8 131704635.17908  25292490.899 8 107020805.69208
C25  23605976.576 8 124050245.17308  23605983.707 9  92634950.23109  23605983.080 8 122922548.01208  23605983.385 8  99884640.50008
C26  21760383.030 8 114351584.43808  21760390.130 9  85392444.58509  21760389.465 8 113312057.82408  21760389.792 8  92075329.99608
C27  24430570.892 8 128383515.35608  24430577.999 9  95870835.30309  24430577.377 8 127216426.80808  24430577.660 8 103373768.74808
C32  24053462.202 8 126401798.10408  24053469.343 9  94390980.02109  24053468.628 8 125252721.95808  24053468.993 8 101778098.51808
C33  22347454.706 8 117436667.11208  22347461.853 9  87696240.08809  22347461.251 8 116369094.38508  22347461.534 8  94559422.61208
> 2022 12 01 00 36 30.0000000  0 16
C01                                                                  37975681.326 8 197749337.67108  37975681.635 8 160687536.41808
C02                                                                  38535489.264 8 200664404.85208  38535489.671 8 163056267.28708
C03                                                                  37653739.325 8 196072901.15508  37653739.634 8 159325294.43108
C04                                                                  38972980.183 8 202942535.48808  38972980.469 8 164907433.22508
C05                                                                  39896748.362 8 207752839.53908  39896748.836 8 168816200.29208
C06  39102976.483 8 205487530.39808  39102983.620 9 153448506.63409  39102983.017 8 203619492.24708  39102983.296 8 165457518.66908
C07  35940483.164 8 188868513.50708  35940490.233 9 141038203.30609  35940489.518 8 187151559.97508  35940489.865 8 152075973.94108
C09  37025641.664 8 194571061.26308  37025648.809 9 145296598.61109  37025648.171 8 192802265.74908  37025648.490 8 156667635.24908
C10  35998253.424 8 189172100.32108  35998260.520 9 141264906.25209  35998259.847 8 187452385.22608  35998260.186 8 152320420.09508
C11  25447730.956 8 133728727.80108  25447738.097 9  99862390.05209  25447737.479 8 132513046.68208  25447737.832 8 107677706.25808
C18  25296994.707 8 132936605.30108  25297001.809 9  99270869.50809  25297001.162 8 131728123.04408  25297001.503 8 107039891.50608
C25  23594313.847 8 123988957.02308  23594320.943 9  92589183.10709  23594320.364 8 122861817.02508  23594320.651 8  99835291.59208
C26  21761503.830 8 114357474.22208  21761510.923 9  85396842.80109  21761510.344 8 113317894.07008  21761510.563 8  92080072.41808
C27  24443037.674 8 128449028.86408  24443044.780 9  95919757.72909  24443044.140 8 127281344.74008  24443044.460 8 103426519.88108
C32  24034758.032 8 126303507.11608  24034765.199 9  94317580.90309  24034764.492 8 125155324.52608  24034764.828 8 101698955.12208
C33  22343057.651 8 117413560.16708  22343064.721 9  87678984.90209  22343064.104 8 116346197.50808  22343064.420 8  94540817.01808
> 2022 12 01 00 37  0.0000000  0 16
C01                                                                  37975589.971 8 197748862.15308  37975590.320 8 160687150.02508
C02                                                                  38535479.677 8 200664354.79908  38535480.035 8 163056226.62408
C03                                                                  37653437.424 8 196071329.41108  37653437.791 8 159324017.25608
C04                                                                  38972931.648 8 202942282.54808  38972931.908 8 164907227.68808
C05                                                                  39896745.710 8 207752824.94608  39896746.006 8 168816188.43708
C06  39113342.668 8 205542005.01808  39113349.773 9 153489185.73709  39113349.169 8 203673471.64108  39113349.477 8 165501381.34808
C07  35941276.348 8 188872681.84308  35941283.456 9 141041316.02509  35941282.717 8 187155690.41708  35941283.059 8 152079330.26608
C09  37022616.349 8 194555162.87908  37022623.441 9 145284726.44209  37022622.823 8 192786511.89508  37022623.129 8 156654833.95608
C10  36000622.888 8 189184552.03708  36000629.989 9 141274204.61109  36000629.306 8 187464723.74008  36000629.665 8 152330446.15508
C11  25462550.209 8 133806603.38208  25462557.312 9  99920543.89609  25462556.660 8 132590214.31508  25462557.053 8 107740411.28508
C18  25301587.406 8 132960739.99308  25301594.490 9  99288892.16809  25301593.867 8 131752038.32808  25301594.166 8 107059324.63708
C25  23582669.384 8 123927765.05208  23582676.496 9  92543487.80509  23582675.794 8 122801181.34208  23582676.201 8  99786020.13908
C26  21762665.979 8 114363581.41408  21762673.060 9  85401403.36609  21762672.376 8 113323945.74508  21762672.719 8  92084989.90408
C27  24455527.665 8 128514664.15108  24455534.770 9  95968771.09009  24455534.093 8 127346383.33608  24455534.460 8 103479369.07208
C32  24016087.706 8 126205393.45308  24016094.781 9  94244314.20909  24016094.127 8 125058102.80408  24016094.451 8 101619954.51108
C33  22338759.549 8 117390973.78608  22338766.686 9  87662118.44909  22338766.070 8 116323816.45808  22338766.370 8  94522630.58508
> 2022 12 01 00 37 30.0000000  0 16
C01                                                                  37975498.571 8 197748386.37108  37975498.952 8 160686763.41008
C02                                                                  38535469.848 8 200664303.72108  38535470.251 8 163056185.11108
C03                                                                  37653134.834 8 196069753.74708  37653135.205 8 159322736.90708
C04                                                                  38972882.983 8 202942029.66108  38972883.346 8 164907022.20308
C05                                                                  39896743.000 8 207752810.26108  39896743.180 8 168816176.50708
C06  39123716.011 8 205596517.17708  39123723.122 9 153529892.86709  39123722.470 8 203727488.22908  39123722.776 8 165545274.25508
C07  35942066.260 8 188876833.05108  35942073.389 9 141044415.95609  35942072.710 8 187159803.89108  35942072.998 8 152082672.79808
C09  37019607.657 8 194539352.10108  37019614.740 9 145272919.69609  37019614.114 8 192770844.85008  37019614.402 8 156642103.19808
C10  36003016.659 8 189197131.29708  36003023.764 9 141283598.21809  36003023.096 8 187477188.64008  36003023.402 8 152340574.91008
C11  25477392.866 8 133884602.18808  25477399.993 9  99978789.75909  25477399.370 8 132667504.05608  25477399.748 8 107803215.52908
C18  25306261.860 8 132985304.80208  25306269.033 9  99307236.02409  25306268.331 8 131776379.82608  25306268.701 8 107079104.09608
C25  23571043.405 8 123866669.92008  23571050.509 9  92497864.81909  23571049.781 8 122740641.62108  23571050.181 8  99736826.65408
C26  21763869.615 8 114369906.51208  21763876.671 9  85406126.65809  21763876.021 8 113330213.34808  21763876.349 8  92090082.84408
C27  24468040.814 8 128580421.26808  24468047.928 9  96017875.43409  24468047.271 8 127411542.65908  24468047.582 8 103532316.35908
C32  23997451.459 8 126107459.60108  23997458.597 9  94171181.78709  23997457.924 8 124961059.26008  23997458.230 8 101541098.68208
C33  22334560.730 8 117368908.77208  22334567.870 9  87645641.33409  22334567.189 8 116301952.03808  22334567.549 8  94504863.95408
> 2022 12 01 00 38  0.0000000  0 16
C01                                                                  37975407.203 8 197747910.29708  37975407.547 8 160686376.56708
C02                                                                  38535459.872 8 200664251.60408  38535460.279 8 163056142.76208
C03                                                                  37652831.528 8 196068174.16008  37652831.873 8 159321453.36208
C04                                                                  38972834.457 8 202941776.81408  38972834.811 8 164906816.74508
C05                                                                  39896740.054 8 207752795.45408  39896740.296 8 168816164.48108
C06  39134096.328 8 205651066.31608  39134103.483 9 153570627.61609  39134102.845 8 203781541.47008  39134103.171 8 165589196.94208
C07  35942852.879 8 188880966.94808  35942860.068 9 141047502.96009  35942859.380 8 187163900.21408  35942859.688 8 152086001.39708
C09  37016615.521 8 194523628.64508  37016622.678 9 145261178.15609  37016622.017 8 192755264.33208  37016622.356 8 156629442.75208
C10  36005434.723 8 189209838.32808  36005441.807 9 141293087.23209  36005441.179 8 187489780.15108  36005441.473 8 152350806.54308
C11  25492258.524 8 133962721.67308  25492265.647 9 100037125.73509  25492265.069 8 132744913.37008  25492265.393 8 107866116.94108
C18  25311018.037 8 133010298.41108  25311025.146 9  99325900.08409  25311024.461 8 131801146.22108  25311024.829 8 107099228.82708
C25  23559435.910 8 123805672.21508  23559443.016 9  92452314.58509  23559442.392 8 122680198.43408  23559442.728 8  99687711.62008
C26  21765114.813 8 114376449.92308  21765121.862 9  85411012.97109  21765121.184 8 113336697.27108  21765121.547 8  92095351.56708
C27  24480577.135 8 128646300.19508  24480584.274 9  96067070.73809  24480583.626 8 127476822.68108  24480583.964 8 103585361.72608
C32  23978849.950 8 126009707.97008  23978857.123 9  94098185.44209  23978856.364 8 124864196.27908  23978856.710 8 101462389.58008
C33  22330461.255 8 117347365.83308  22330468.364 9  87629554.07209  22330467.749 8 116280604.93808  22330468.066 8  94487517.69608
> 2022 12 01 00 38 30.0000000  0 16
C01                                                                  37975315.677 8 197747433.95108  37975316.036 8 160685989.48508
C02                                                                  38535449.645 8 200664198.43108  38535450.008 8 163056099.55608
C03                                                                  37652527.386 8 196066590.65308  37652527.749 8 159320166.62908
C04                                                                  38972785.846 8 202941524.00708  38972786.213 8 164906611.31508
C05                                                                  39896737.205 8 207752780.55108  39896737.407 8 168816152.35408
C06  39144483.696 8 205705651.92108  39144490.771 9 153611389.59009  39144490.067 8 203835630.84708  39144490.434 8 165633148.98308
C07  35943636.268 8 188885083.38208  35943643.368 9 141050576.91309  35943642.638 8 187167979.22308  35943642.975 8 152089315.91808
C09  37013640.064 8 194507992.25808  37013647.182 9 145249501.62509  37013646.551 8 192739770.09008  37013646.838 8 156616852.40608
C10  36007877.108 8 189222673.37008  36007884.212 9 141302671.84009  36007883.575 8 187502498.52108  36007883.922 8 152361141.25008
C11  25507146.656 8 134040959.30908  25507153.775 9 100095549.94509  25507153.171 8 132822439.77008  25507153.497 8 107929113.48508
C18  25315855.478 8 133035719.51308  25315862.606 9  99344883.36909  25315861.992 8 131826336.22008  25315862.296 8 107119697.75608
C25  23547847.067 8 123744772.54108  23547854.162 9  92406837.55109  23547853.565 8 122619852.39108  23547853.851 8  99638675.50808
C26  21766401.530 8 114383212.08208  21766408.666 9  85416062.62909  21766407.961 8 113343397.96208  21766408.332 8  92100796.41808
C27  24493136.665 8 128712300.92308  24493143.782 9  96116356.99409  24493143.126 8 127542223.40108  24493143.462 8 103638505.16108
C32  23960283.599 8 125912140.98808  23960290.684 9  94025326.97809  23960290.057 8 124767516.27108  23960290.325 8 101383829.14708
C33  22326461.184 8 117326345.66908  22326468.354 9  87613857.19509  22326467.695 8 116259775.87408  22326468.054 8  94470592.36408
> 2022 12 01 00 39  0.0000000  0 16
C01                                                                  37975224.166 8 197746957.30108  37975224.524 8 160685602.17108
C02                                                                  38535439.209 8 200664144.19608  38535439.634 8 163056055.48808
C03                                                                  37652222.600 8 196065003.21508  37652222.909 8 159318876.70808
C04                                                                  38972737.360 8 202941271.22708  38972737.665 8 164906405.91108
C05                                                                  39896734.343 8 207752765.50408  39896734.608 8 168816140.13608
C06  39154877.775 8 205760273.44508  39154884.886 9 153652178.39009  39154884.286 8 203889755.80708  39154884.586 8 165677129.95308
C07  35944416.225 8 188889182.16108  35944423.319 9 141053637.69109  35944422.650 8 187172040.74308  35944422.957 8 152092616.24008
C09  37010681.110 8 194492442.65308  37010688.195 9 145237889.90709  37010687.566 8 192724361.84508  37010687.863 8 156604331.94408
C10  36010343.997 8 189235636.65208  36010351.071 9 141312352.21209  36010350.346 8 187515343.94808  36010350.759 8 152371579.21508
C11  25522056.755 8 134119312.55108  25522063.913 9 100154060.48109  25522063.363 8 132900080.72208  25522063.642 8 107992203.12008
C18  25320774.077 8 133061566.74008  25320781.211 9  99364184.87109  25320780.526 8 131851948.47408  25320780.856 8 107140509.81108
C25  23536277.034 8 123683971.48608  23536284.133 9  92361434.16609  23536283.577 8 122559604.06708  23536283.814 8  99589718.81308
C26  21767730.040 8 114390193.39708  21767737.164 9  85421275.95009  21767736.502 8 113350315.81208  21767736.827 8  92106417.74108
C27  24505719.400 8 128778423.42508  24505726.467 9  96165734.18409  24505725.829 8 127607744.78908  24505726.155 8 103691746.65808
C32  23941752.793 8 125814761.05508  23941759.912 9  93952608.19609  23941759.215 8 124671021.60708  23941759.557 8 101305419.33108
C33  22322560.864 8 117305848.94708  22322567.940 9  87598551.19809  22322567.354 8 116239465.48408  22322567.667 8  94454088.51408
> 2022 12 01 00 39 30.0000000  0 16
C01                                                                  37975132.609 8 197746480.39808  37975132.918 8 160685214.65208
C02                                                                  38535428.584 8 200664088.95208  38535429.000 8 163056010.59708
C03                                                                  37651916.929 8 196063411.90108  37651917.314 8 159317583.63408
C04                                                                  38972688.852 8 202941018.51508  38972689.130 8 164906200.56408
C05                                                                  39896731.289 8 207752750.37408  39896731.692 8 168816127.84608
C06  39165278.696 8 205814930.40708  39165285.765 9 153692993.65409  39165285.133 8 203943915.88708  39165285.442 8 165721139.45508
C07  35945192.825 8 188893263.17908  35945199.946 9 141056685.20409  35945199.183 8 187176084.66408  35945199.552 8 152095902.26408
C09  37007738.514 8 194476979.61308  37007745.653 9 145226342.83609  37007745.010 8 192709039.37508  37007745.345 8 156591881.18808
C10  36012835.190 8 189248728.45508  36012842.355 9 141322128.55909  36012841.692 8 187528316.73508  36012842.002 8 152382120.67408
C11  25536988.420 8 134197778.92008  25536995.533 9 100212655.49909  25536994.916 8 132977833.77808  25536995.304 8 108055383.85008
C18  25325773.523 8 133087838.80208  25325780.584 9  99383803.61909  25325779.926 8 131877981.70308  25325780.279 8 107161663.94508
C25  23524725.843 8 123623269.71908  23524732.956 9  92316104.92409  23524732.294 8 122499454.13408  23524732.660 8  99540842.06908
C26  21769100.325 8 114397394.35208  21769107.472 9  85426653.29009  21769106.907 8 113357451.31108  21769107.121 8  92112215.92308
C27  24518325.252 8 128844667.74008  24518332.341 9  96215202.34509  24518331.736 8 127673386.87908  24518332.037 8 103745086.23708
C32  23923258.093 8 125717570.63108  23923265.181 9  93880030.93509  23923264.387 8 124574714.73708  23923264.823 8 101227162.11108
C33  22318760.167 8 117285876.37208  22318767.312 9  87583636.61609  22318766.680 8 116219674.48408  22318766.990 8  94438006.70308
> 2022 12 01 00 40  0.0000000  0 16
C01                                                                  37975040.945 8 197746003.18608  37975041.303 8 160684826.87708
C02                                                                  38535417.785 8 200664032.61808  38535418.201 8 163055964.81908
C03                                                                  37651610.677 8 196061816.64808  37651610.968 8 159316287.35608
C04                                                                  38972640.335 8 202940765.81708  38972640.631 8 164905995.22508
C05                                                                  39896728.343 8 207752735.09908  39896728.750 8 168816115.42808
C06  39175686.145 8 205869622.21408  39175693.274 9 153733834.93909  39175692.624 8 203998110.49508  39175692.949 8 165765177.00908
C07  35945965.998 8 188897326.21808  35945973.096 9 141059719.29009  35945972.390 8 187180110.76508  35945972.728 8 152099173.79708
C09  37004812.428 8 194461602.82308  37004819.523 9 145214860.16409  37004818.910 8 192693802.37108  37004819.226 8 156579499.87108
C10  36015351.005 8 189261948.95608  36015358.133 9 141332001.01109  36015357.499 8 187541417.04908  36015357.830 8 152392765.74308
C11  25551941.165 8 134276355.83108  25551948.242 9 100271333.06109  25551947.548 8 133055696.36008  25551947.997 8 108118653.57608
C18  25330853.481 8 133114534.27808  25330860.566 9  99403738.55209  25330859.850 8 131904434.48808  25330860.268 8 107183158.99708
C25  23513193.696 8 123562667.80008  23513200.831 9  92270850.24609  23513200.154 8 122439403.14308  23513200.481 8  99492045.71708
C26  21770512.555 8 114404815.32108  21770519.622 9  85432194.92409  21770519.014 8 113364804.82008  21770519.297 8  92118191.24808
C27  24530954.347 8 128911033.79708  24530961.401 9  96264761.41109  24530960.725 8 127739149.60408  24530961.082 8 103798523.83508
C32  23904799.912 8 125620572.08608  23904806.992 9  93807596.95409  23904806.223 8 124478597.99208  23904806.627 8 101149059.38408
C33  22315059.384 8 117266428.53108  22315066.520 9  87569113.87609  22315065.831 8 116200403.44508  22315066.218 8  94422347.40108
> 2022 12 01 00 40 30.0000000  0 16
C01                                                                  37974949.228 8 197745525.71908  37974949.595 8 160684438.90208
C02                                                                  38535406.816 8 200663975.26008  38535407.188 8 163055918.21208
C03                                                                  37651303.579 8 196060217.52208  37651303.861 8 159314987.94408
C04                                                                  38972591.742 8 202940513.17508  38972592.145 8 164905789.93708
C05                                                                  39896725.512 8 207752719.73008  39896725.776 8 168816102.94108
C06  39186100.234 8 205924348.38808  39186107.337 9 153774701.88709  39186106.667 8 204052339.15808  39186106.985 8 165809242.24308
C07  35946735.772 8 188901371.17108  35946742.866 9 141062739.87309  35946742.175 8 187184118.94808  35946742.462 8 152102430.77608
C09  37001902.701 8 194446312.05108  37001909.840 9 145203441.73609  37001909.203 8 192678650.60508  37001909.504 8 156567187.82408
C10  36017891.358 8 189275298.44308  36017898.455 9 141341969.78609  36017897.778 8 187554645.17408  36017898.126 8 152403514.68308
C11  25566914.361 8 134355040.80908  25566921.514 9 100330091.32509  25566920.928 8 133133666.03508  25566921.261 8 108182010.32308
C18  25336013.782 8 133141651.83308  25336020.871 9  99423988.67509  25336020.237 8 131931305.52108  25336020.558 8 107204993.91708
C25  23501680.683 8 123502166.40808  23501687.800 9  92225670.63809  23501687.134 8 122379451.76208  23501687.476 8  99443330.31208
C26  21771966.650 8 114412456.79408  21771973.776 9  85437901.21709  21771973.105 8 113372376.82508  21771973.420 8  92124344.12208
C27  24543606.505 8 128977521.62808  24543613.604 9  96314411.41909  24543613.033 8 127805032.99708  24543613.297 8 103852059.49108
C32  23886378.633 8 125523767.87508  23886385.744 9  93735308.09909  23886384.993 8 124382673.81908  23886385.413 8 101071113.13808
C33  22311458.598 8 117247506.08808  22311465.691 9  87554983.48409  22311465.053 8 116181653.02508  22311465.388 8  94407111.15608
> 2022 12 01 00 41  0.0000000  0 16
C01                                                                  37974857.528 8 197745047.97108  37974857.855 8 160684050.68208
C02                                                                  38535395.722 8 200663916.84508  38535395.941 8 163055870.74608
C03                                                                  37650995.645 8 196058614.50708  37650996.021 8 159313685.35308
C04                                                                  38972543.314 8 202940260.57308  38972543.614 8 164905584.67208
C05                                                                  39896722.503 8 207752704.23308  39896722.829 8 168816090.34808
C06  39196520.693 8 205979108.37108  39196527.817 9 153815594.07909  39196527.148 8 204106601.32108  39196527.475 8 165853334.68908
C07  35947501.962 8 188905397.85808  35947509.066 9 141065746.81609  35947508.392 8 187188109.03008  35947508.703 8 152105673.04108
C09  36999009.306 8 194431107.01708  36999016.391 9 145192087.32609  36999015.715 8 192663583.79708  36999016.076 8 156554944.80408
C10  36020456.288 8 189288777.12108  36020463.351 9 141352035.03009  36020462.665 8 187568001.31508  36020463.033 8 152414367.63908
C11  25581907.698 8 134433831.30208  25581914.827 9 100388928.38009  25581914.269 8 133211740.26508  25581914.576 8 108245452.02408
C18  25341254.122 8 133169190.05408  25341261.242 9  99444552.92909  25341260.580 8 131958593.39808  25341260.922 8 107227167.54508
C25  23490186.838 8 123441766.15208  23490193.989 9  92180566.54709  23490193.262 8 122319600.59508  23490193.672 8  99394696.33108
C26  21773462.772 8 114420319.17208  21773469.894 9  85443772.47109  21773469.243 8 113380167.72708  21773469.575 8  92130674.86808
C27  24556281.907 8 129044131.19508  24556289.008 9  96364152.32509  24556288.272 8 127871037.01808  24556288.670 8 103905693.16308
C32  23867994.852 8 125427160.39308  23868001.935 9  93663166.14309  23868001.308 8 124286944.58008  23868001.620 8 100993325.28808
C33  22307957.808 8 117229109.62808  22307964.955 9  87541245.86409  22307964.349 8 116163423.80508  22307964.647 8  94392298.41808
> 2022 12 01 00 41 30.0000000  0 16
C01                                                                  37974765.699 8 197744569.94908  37974766.062 8 160683662.25708
C02                                                                  38535384.297 8 200663857.38208  38535384.454 8 163055822.42508
C03                                                                  37650687.143 8 196057007.60908  37650687.452 8 159312379.62108
C04                                                                  38972494.815 8 202940008.02108  38972495.119 8 164905379.45308
C05                                                                  39896719.413 8 207752688.62408  39896719.811 8 168816077.66608
C06  39206947.512 8 206033901.63708  39206954.613 9 153856511.13209  39206953.921 8 204160896.47108  39206954.265 8 165897453.95108
C07  35948264.747 8 188909406.13808  35948271.863 9 141068740.01209  35948271.103 8 187192080.87408  35948271.471 8 152108900.49608
C09  36996132.102 8 194415987.46008  36996139.259 9 145180796.74809  36996138.615 8 192648601.69008  36996138.930 8 156542770.61708
C10  36023045.769 8 189302385.22708  36023052.884 9 141362196.93009  36023052.231 8 187581485.71308  36023052.579 8 152425324.82008
C11  25596920.654 8 134512724.79508  25596927.743 9 100447842.35209  25596927.147 8 133289916.55608  25596927.520 8 108308976.67008
C18  25346574.212 8 133197147.54308  25346581.341 9  99465430.27309  25346580.698 8 131986296.72608  25346581.038 8 107249678.77108
C25  23478712.467 8 123381467.67808  23478719.586 9  92135538.46509  23478718.900 8 122259850.28308  23478719.270 8  99346144.31108
C26  21775001.085 8 114428402.90908  21775008.195 9  85449809.02909  21775007.544 8 113388177.98008  21775007.851 8  92137183.85808
C27  24568980.406 8 129110862.49508  24568987.556 9  96413984.14309  24568986.844 8 127937161.66508  24568987.233 8 103959424.86108
C32  23849649.006 8 125330752.05408  23849656.079 9  93591172.90009  23849655.385 8 124191412.68608  23849655.711 8 100915697.79608
C33  22304557.324 8 117211239.73308  22304564.435 9  87527901.46409  22304563.752 8 116145716.36508  22304564.146 8  94377909.67608
> 2022 12 01 00 42  0.0000000  0 16
C01                                                                  37974673.861 8 197744091.65908  37974674.188 8 160683273.60808
C02                                                                  38535372.479 8 200663796.88008  38535372.868 8 163055773.26008
C03                                                                  37650377.779 8 196055396.84008  37650378.128 8 159311070.74208
C04                                                                  38972446.182 8 202939755.51208  38972446.625 8 164905174.27108
C05                                                                  39896716.479 8 207752672.89608  39896716.775 8 168816064.88808
C06  39217380.515 8 206088727.66508  39217387.671 9 153897452.64409  39217386.981 8 204215224.07508  39217387.337 8 165941599.57908
C07  35949024.011 8 188913395.86008  35949031.062 9 141071719.35009  35949030.331 8 187196034.33008  35949030.702 8 152112112.99908
C09  36993271.176 8 194400953.11108  36993278.285 9 145169569.80009  36993277.590 8 192633704.01408  36993277.987 8 156530665.03808
C10  36025660.033 8 189316123.00008  36025667.137 9 141372455.65409  36025666.494 8 187595098.59308  36025666.793 8 152436386.39908
C11  25611952.654 8 134591718.77408  25611959.812 9 100506831.36309  25611959.249 8 133368192.41808  25611959.579 8 108372582.21908
C18  25351973.835 8 133225522.87708  25351980.978 9  99486619.64709  25351980.267 8 132014414.10408  25351980.686 8 107272526.44108
C25  23467257.578 8 123321271.62408  23467264.644 9  92090586.87109  23467263.967 8 122200201.46908  23467264.339 8  99297674.76108
C26  21776581.545 8 114436708.44108  21776588.683 9  85456011.21209  21776588.079 8 113396408.01208  21776588.371 8  92143871.42908
C27  24581702.122 8 129177715.50908  24581709.245 9  96463906.84609  24581708.579 8 128003406.92608  24581708.925 8 104013254.55608
C32  23831341.404 8 125234545.27408  23831348.529 9  93519330.17709  23831347.852 8 124096080.51108  23831348.150 8 100838232.59608
C33  22301257.063 8 117193896.96908  22301264.224 9  87514950.69909  22301263.587 8 116128531.26608  22301263.916 8  94363945.37108
> 2022 12 01 00 42 30.0000000  0 16
C01                                                                  37974582.027 8 197743613.11808  37974582.300 8 160682884.75508
C02                                                                  38535360.669 8 200663735.33908  38535361.036 8 163055723.25108
C03                                                                  37650067.725 8 196053782.22408  37650068.039 8 159309758.73508
C04                                                                  38972397.709 8 202939503.07408  38972398.139 8 164904969.14208
C05                                                                  39896713.443 8 207752657.08008  39896713.783 8 168816052.03508
C06  39227819.729 8 206143585.92408  39227826.840 9 153938418.23409  39227826.190 8 204269583.62508  39227826.498 8 165985771.16808
C07  35949779.619 8 188917366.89508  35949786.738 9 141074684.73509  35949786.035 8 187199969.26508  35949786.333 8 152115310.45508
C09  36990426.442 8 194386003.70808  36990433.558 9 145158406.28609  36990432.873 8 192618890.51408  36990433.181 8 156518627.85308
C10  36028298.931 8 189329990.67608  36028306.031 9 141382811.38809  36028305.341 8 187608840.20008  36028305.691 8 152447552.57908
C11  25627003.387 8 134670810.72208  25627010.521 9 100565893.53509  25627009.876 8 133446565.36508  25627010.288 8 108436266.65908
C18  25357452.793 8 133254314.63008  25357459.885 9  99508119.98709  25357459.270 8 132042944.11408  25357459.563 8 107295709.41808
C25  23455822.236 8 123261178.66508  23455829.349 9  92045712.25909  23455828.677 8 122140654.80808  23455829.008 8  99249288.22008
C26  21778204.362 8 114445236.22608  21778211.470 9  85462379.36409  21778210.840 8 113404858.27308  21778211.152 8  92150737.95708
C27  24594446.987 8 129244690.23508  24594454.095 9  96513920.44009  24594453.508 8 128069772.78408  24594453.791 8 104067182.25408
C32  23813072.671 8 125138542.47108  23813079.776 9  93447639.77409  23813079.105 8 124000950.45808  23813079.431 8 100760931.63808
C33  22298057.257 8 117177081.89208  22298064.394 9  87502393.98809  22298063.721 8 116111869.05408  22298064.107 8  94350405.95808
> 2022 12 01 00 43  0.0000000  0 16
C01                                                                  37974490.001 8 197743134.29708  37974490.310 8 160682495.67208
C02                                                                  38535348.627 8 200663672.73108  38535349.088 8 163055672.37608
C03                                                                  37649756.827 8 196052163.73008  37649757.221 8 159308443.57308
C04                                                                  38972349.344 8 202939250.65708  38972349.662 8 164904764.03708
C05                                                                  39896710.286 8 207752641.11708  39896710.711 8 168816039.06308
C06  39238264.915 8 206198475.85308  39238272.026 9 153979407.46409  39238271.377 8 204323974.55408  39238271.706 8 166029968.25308
C07  35950531.669 8 188921319.05408  35950538.772 9 141077636.02409  35950538.104 8 187203885.49608  35950538.397 8 152118492.71308
C09  36987597.763 8 194371138.95408  36987604.852 9 145147305.98109  36987604.147 8 192604160.88908  36987604.509 8 156506658.82408
C10  36030962.589 8 189343988.44008  36030969.747 9 141393264.26709  36030969.033 8 187622710.71408  36030969.403 8 152458823.50808
C11  25642072.225 8 134749998.08908  25642079.348 9 100625026.95909  25642078.717 8 133525032.86308  25642079.113 8 108500027.92508
C18  25363010.580 8 133283521.32608  25363017.739 9  99529930.18009  25363017.041 8 132071885.29508  25363017.404 8 107319226.49508
C25  23444406.664 8 123201189.41308  23444413.747 9  92000915.08809  23444413.072 8 122081210.90708  23444413.446 8  99200985.18608
C26  21779869.463 8 114453986.66008  21779876.579 9  85468913.78009  21779875.907 8 113413529.16608  21779876.297 8  92157783.76808
C27  24607215.018 8 129311786.60808  24607222.133 9  96564024.88009  24607221.480 8 128136259.18808  24607221.785 8 104121207.90608
C32  23794843.227 8 125042746.00808  23794850.312 9  93376103.45909  23794849.574 8 123906024.87708  23794849.967 8 100683796.82408
C33  22294957.998 8 117160794.98108  22294965.112 9  87490231.68309  22294964.435 8 116095730.21008  22294964.777 8  94337291.82808
> 2022 12 01 00 43 30.0000000  0 16
C01                                                                  37974397.980 8 197742655.23208  37974398.365 8 160682106.38808
C02                                                                  38535336.527 8 200663609.10008  38535336.867 8 163055620.67208
C03                                                                  37649445.369 8 196050541.40908  37649445.669 8 159307125.30108
C04                                                                  38972300.939 8 202938998.31808  38972301.212 8 164904558.98408
C05                                                                  39896707.308 8 207752625.06108  39896707.559 8 168816026.01408
C06  39248716.116 8 206253396.95308  39248723.179 9 154020419.97209  39248722.538 8 204378396.37408  39248722.849 8 166074190.43808
C07  35951280.099 8 188925252.23808  35951287.248 9 141080573.13709  35951286.569 8 187207782.92708  35951286.879 8 152121659.69508
C09  36984785.099 8 194356358.60608  36984792.214 9 145136268.70509  36984791.591 8 192589514.90708  36984791.919 8 156494757.76508
C10  36033651.132 8 189358116.57108  36033658.236 9 141403814.48809  36033657.529 8 187636710.40208  36033657.875 8 152470199.40008
C11  25657158.785 8 134829278.40408  25657165.880 9 100684229.78509  25657165.323 8 133603592.45608  25657165.675 8 108563864.02608
C18  25368647.183 8 133313141.52908  25368654.264 9  99552049.16309  25368653.647 8 132101236.22708  25368653.964 8 107343076.52908
C25  23433010.927 8 123141304.57008  23433018.065 9  91956195.88809  23433017.366 8 122021870.47008  23433017.730 8  99152766.21708
C26  21781577.159 8 114462960.23508  21781584.233 9  85475614.82209  21781583.588 8 113422421.16408  21781583.889 8  92165009.24308
C27  24620006.226 8 129379004.65808  24620013.293 9  96614220.17009  24620012.587 8 128202866.16408  24620012.962 8 104175331.52608
C32  23776653.495 8 124947158.33908  23776660.604 9  93304723.05109  23776659.908 8 123811306.18508  23776660.244 8 100606830.12308
C33  22291959.252 8 117145036.78008  22291966.420 9  87478464.19309  22291965.783 8 116080115.26608  22291966.130 8  94324603.40208
> 2022 12 01 00 44  0.0000000  0 16
C01                                                                  37974305.882 8 197742175.91608  37974306.307 8 160681716.90908
C02                                                                  38535324.216 8 200663544.42408  38535324.351 8 163055568.11408
C03                                                                  37649133.111 8 196048915.25008  37649133.398 8 159305803.91708
C04                                                                  38972252.525 8 202938746.03708  38972252.766 8 164904353.98308
C05                                                                  39896704.214 8 207752608.90508  39896704.558 8 168816012.88708
C06  39259173.068 8 206308348.68208  39259180.181 9 154061455.35709  39259179.512 8 204432848.54108  39259179.812 8 166118437.28408
C07  35952024.930 8 188929166.29008  35952032.083 9 141083495.97209  35952031.331 8 187211661.40008  35952031.702 8 152124811.27008
C09  36981988.527 8 194341662.38108  36981995.657 9 145125294.25909  36981994.980 8 192574952.28608  36981995.317 8 156482924.44008
C10  36036364.454 8 189372375.26408  36036371.561 9 141414462.21809  36036370.874 8 187650839.46908  36036371.221 8 152481680.42808
C11  25672262.510 8 134908649.12408  25672269.646 9 100743500.13309  25672269.069 8 133682241.63608  25672269.455 8 108627772.93008
C18  25374362.090 8 133343173.75908  25374369.218 9  99574475.82909  25374368.537 8 132130995.43308  25374368.900 8 107367258.32608
C25  23421635.195 8 123081524.78908  23421642.336 9  91911555.14009  23421641.701 8 121962634.13908  23421642.001 8  99104631.84608
C26  21783327.275 8 114472157.37908  21783334.413 9  85482482.82309  21783333.741 8 113431534.69508  21783334.060 8  92172414.73508
C27  24632820.476 8 129446344.34308  24632827.637 9  96664506.30409  24632826.961 8 128269593.66808  24632827.281 8 104229553.08808
C32  23758503.879 8 124851781.84208  23758511.073 9  93233500.34609  23758510.392 8 123716796.74408  23758510.702 8 100530033.46608
C33  22289061.337 8 117129807.75608  22289068.426 9  87467091.87109  22289067.760 8 116065024.69208  22289068.140 8  94312341.07308
> 2022 12 01 00 44 30.0000000  0 16
C01                                                                  37974213.905 8 197741696.30108  37974214.187 8 160681327.17908
C02                                                                  38535311.356 8 200663478.66708  38535311.718 8 163055514.68308
C03                                                                  37648819.955 8 196047285.22108  37648820.353 8 159304479.38208
C04                                                                  38972204.021 8 202938493.77508  38972204.348 8 164904148.99808
C05                                                                  39896700.927 8 207752592.58608  39896701.388 8 168815999.62708
C06  39269635.668 8 206363330.45108  39269642.836 9 154102513.16809  39269642.081 8 204487330.47308  39269642.477 8 166162708.31608
C07  35952766.153 8 188933061.02608  35952773.209 9 141086404.37409  35952772.489 8 187215520.73108  35952772.825 8 152127947.29308
C09  36979207.913 8 194327049.96408  36979214.993 9 145114382.38209  36979214.355 8 192560472.70108  36979214.661 8 156471158.59408
C10  36039102.705 8 189386764.69908  36039109.777 9 141425207.57409  36039109.090 8 187665098.08908  36039109.447 8 152493266.72008
C11  25687382.990 8 134988107.69208  25687390.127 9 100802836.07409  25687389.556 8 133760977.86908  25687389.878 8 108691752.56408
C18  25380155.069 8 133373616.46508  25380162.269 9  99597209.01409  25380161.663 8 132161161.38908  25380161.955 8 107391770.62708
C25  23410279.629 8 123021850.68908  23410286.735 9  91866993.31209  23410286.127 8 121903502.53208  23410286.400 8  99056582.56708
C26  21785120.061 8 114481578.48108  21785127.164 9  85489518.06009  21785126.491 8 113440870.15808  21785126.823 8  92180000.56108
C27  24645657.931 8 129513805.59708  24645665.068 9  96714883.21109  24645664.421 8 128336441.63408  24645664.738 8 104283872.53308
C32  23740395.039 8 124756618.87208  23740402.124 9  93162437.08309  23740401.349 8 123622498.89008  23740401.796 8 100453408.73108
C33  22286264.061 8 117115108.32108  22286271.227 9  87456115.01509  22286270.595 8 116050458.88108  22286270.911 8  94300505.16208
> 2022 12 01 00 45  0.0000000  0 15
C01                                                                  37974121.781 8 197741216.46808  37974122.014 8 160680937.27608
C02                                                                  38535298.522 8 200663411.89108  38535299.010 8 163055460.42708
C03                                                                  37648506.257 8 196045651.39808  37648506.615 8 159303151.77108
C04                                                                  38972155.513 8 202938241.59408  38972155.938 8 164903944.08908
C05                                                                  39896697.944 8 207752576.19208  39896698.240 8 168815986.30708
C06  39280104.016 8 206418341.79508  39280111.145 9 154143593.06909  39280110.502 8 204541841.71708  39280110.832 8 166207003.16608
C07  35953503.565 8 188936936.37408  35953510.690 9 141089298.30409  35953509.931 8 187219360.85408  35953510.290 8 152131067.70508
C09  36976443.178 8 194312521.13908  36976450.261 9 145103532.93709  36976449.627 8 192546075.95608  36976449.924 8 156459460.06108
C10  36041865.845 8 189401285.16008  36041872.939 9 141436050.77609  36041872.284 8 187679486.55208  36041872.610 8 152504958.52408
C18  25386026.033 8 133404468.21408  25386033.192 9  99620247.65909  25386032.514 8 132191732.66808  25386032.858 8 107416612.30008
C25  23398944.303 8 122962283.02508  23398951.384 9  91822510.96709  23398950.734 8 121844476.38808  23398951.064 8  99008618.99608
C26  21786955.551 8 114491224.06408  21786962.678 9  85496720.92909  21786962.002 8 113450428.05308  21786962.341 8  92187767.13608
C27  24658518.521 8 129581388.45508  24658525.656 9  96765350.93209  24658524.996 8 128403410.10108  24658525.332 8 104338289.90108
C32  23722327.264 8 124661671.88708  23722334.346 9  93091535.11709  23722333.624 8 123528415.06008  23722334.023 8 100376957.91608
C33  22283567.814 8 117100938.98208  22283574.894 9  87445534.01409  22283574.283 8 116036418.36108  22283574.592 8  94289096.08708
> 2022 12 01 00 45 30.0000000  0 16
C01                                                                  37974029.572 8 197740736.36508  37974029.863 8 160680547.16008
C02                                                                  38535285.698 8 200663344.06308  38535285.962 8 163055405.30708
C03                                                                  37648191.701 8 196044013.74408  37648192.108 8 159301821.03808
C04                                                                  38972107.067 8 202937989.46608  38972107.452 8 164903739.21208
C05                                                                  39896694.855 8 207752559.66708  39896695.083 8 168815972.87908
C06  39290577.856 8 206473382.13608  39290584.967 9 154184694.62209  39290584.290 8 204596381.69008  39290584.609 8 166251321.36108
C07  35954237.322 8 188940792.15908  35954244.415 9 141092177.62409  35954243.630 8 187223181.58408  35954244.039 8 152134172.36408
C09  36973694.203 8 194298075.59308  36973701.366 9 145092745.67709  36973700.742 8 192531761.73208  36973701.031 8 156447828.57908
C10  36044653.954 8 189415936.82708  36044661.071 9 141446991.95709  36044660.390 8 187694005.01908  36044660.728 8 152516755.97108
C18  25391974.473 8 133435727.43908  25391981.593 9  99643590.58709  25391981.073 8 132222707.71808  25391981.297 8 107441782.06708
C25  23387629.276 8 122902822.43308  23387636.422 9  91778108.57809  23387635.722 8 121785556.34408  23387636.110 8  98960741.63508
C26  21788833.846 8 114501094.52508  21788840.939 9  85504091.73009  21788840.258 8 113460208.78408  21788840.604 8  92195714.78208
C27  24671402.252 8 129649092.85608  24671409.409 9  96815909.41209  24671408.697 8 128470499.00108  24671409.062 8 104392805.13308
C32  23704300.971 8 124566943.23408  23704308.095 9  93020796.19009  23704307.414 8 123434547.57708  23704307.739 8 100300682.89508
C33  22280972.371 8 117087300.10908  22280979.510 9  87435349.14909  22280978.868 8 116022903.48108  22280979.208 8  94278114.14208
C34  24910766.673 8 130906963.43618  24910773.828 9  97755226.85919  24910773.142 8 129716932.48118  24910773.495 8 105405634.43018
> 2022 12 01 00 46  0.0000000  0 16
C01                                                                  37973937.291 8 197740256.03508  37973937.600 8 160680156.84708
C02                                                                  38535272.283 8 200663275.20008  38535272.668 8 163055349.35208
C03                                                                  37647876.545 8 196042372.29108  37647876.881 8 159300487.22608
C04                                                                  38972058.666 8 202937737.41208  38972059.056 8 164903534.39508
C05                                                                  39896691.358 8 207752543.04608  39896691.881 8 168815959.36708
C06  39301057.067 8 206528450.95608  39301064.212 9 154225817.44209  39301063.569 8 204650949.88308  39301063.888 8 166295662.48708
C07  35954967.291 8 188944628.26308  35954974.397 9 141095042.24909  35954973.591 8 187226982.81808  35954974.018 8 152137261.17708
C09  36970961.126 8 194283713.06708  36970968.277 9 145082020.41409  36970967.628 8 192517529.77108  36970967.938 8 156436263.94508
C10  36047467.070 8 189430719.93908  36047474.178 9 141458031.29209  36047473.510 8 187708653.73508  36047473.832 8 152528659.25308
C18  25398000.123 8 133467392.63008  25398007.272 9  99667236.67009  25398006.621 8 132254085.04108  25398006.957 8 107467278.71008
C25  23376334.857 8 122843469.62008  23376341.946 9  91733786.67509  23376341.307 8 121726743.10508  23376341.627 8  98912951.05608
C26  21790754.983 8 114511190.33108  21790762.103 9  85511630.80709  21790761.410 8 113470212.81608  21790761.787 8  92203843.87508
C27  24684309.118 8 129716918.78708  24684316.202 9  96866558.64809  24684315.553 8 128537708.33408  24684315.909 8 104447418.21608
C32  23686316.732 8 124472435.33308  23686323.804 9  92950222.10809  23686323.031 8 123340898.83508  23686323.465 8 100224585.62408
C33  22278478.043 8 117074192.13608  22278485.140 9  87425560.72509  22278484.463 8 116009914.66908  22278484.834 8  94267559.66808
C34  24924534.115 8 130979311.83708  24924541.216 9  97809253.26409  24924540.553 8 129788623.17108  24924540.940 8 105463888.98908
> 2022 12 01 00 46 30.0000000  0 16
C01                                                                  37973844.907 8 197739775.43108  37973845.301 8 160679766.31908
C02                                                                  38535258.814 8 200663205.27808  38535259.307 8 163055292.53608
C03                                                                  37647560.554 8 196040727.01608  37647560.925 8 159299150.30808
C04                                                                  38972010.391 8 202937485.39608  38972010.655 8 164903329.61808
C05                                                                  39896688.299 8 207752526.28808  39896688.662 8 168815945.75208
C06  39311541.669 8 206583547.69008  39311548.787 9 154266961.10709  39311548.111 8 204705545.73408  39311548.455 8 166340026.09008
C07  35955693.511 8 188948444.52408  35955700.597 9 141097892.05609  35955699.886 8 187230764.38708  35955700.232 8 152140334.01308
C09  36968243.758 8 194269433.24808  36968250.909 9 145071356.91309  36968250.196 8 192503379.76708  36968250.599 8 156424765.90808
C10  36050305.211 8 189445634.66408  36050312.388 9 141469168.91409  36050311.712 8 187723432.87308  36050312.024 8 152540668.51308
C18  25404102.804 8 133499462.19908  25404109.936 9  99691184.72709  25404109.254 8 132285863.07508  25404109.595 8 107493100.96908
C25  23365061.007 8 122784225.25408  23365068.102 9  91689545.74909  23365067.408 8 121668037.31908  23365067.798 8  98865247.79708
C26  21792719.136 8 114521511.89908  21792726.250 9  85519338.46909  21792725.584 8 113480440.55508  21792725.902 8  92212154.75308
C27  24697239.047 8 129784866.18708  24697246.189 9  96917298.58809  24697245.536 8 128605038.02708  24697245.854 8 104502129.10708
C32  23668374.926 8 124378150.52908  23668382.028 9  92879814.62209  23668381.285 8 123247471.16408  23668381.673 8 100148667.98608
C33  22276084.779 8 117061615.39708  22276091.874 9  87416169.00409  22276091.201 8 115997452.26808  22276091.556 8  94257432.94108
C34  24938367.368 8 131052006.35108  24938374.568 9  97863538.12809  24938373.870 8 129860656.82108  24938374.256 8 105522422.23108
> 2022 12 01 00 47  0.0000000  0 16
C01                                                                  37973752.662 8 197739294.59508  37973752.962 8 160679375.60108
C02                                                                  38535245.422 8 200663134.31808  38535245.646 8 163055234.87108
C03                                                                  37647243.922 8 196039077.95408  37647244.227 8 159297810.30508
C04                                                                  38971961.950 8 202937233.45108  38971962.290 8 164903124.88608
C05                                                                  39896685.115 8 207752509.42208  39896685.397 8 168815932.04508
C06  39322031.390 8 206638671.81008  39322038.514 9 154308125.22409  39322037.840 8 204760168.73208  39322038.223 8 166384411.74708
C07  35956415.873 8 188952240.84008  35956423.009 9 141100726.96209  35956422.317 8 187234526.19208  35956422.631 8 152143390.78608
C09  36965542.121 8 194255235.88108  36965549.198 9 145060754.98209  36965548.567 8 192489311.46608  36965548.908 8 156413334.26008
C10  36053168.513 8 189460681.24908  36053175.615 9 141480404.99509  36053174.919 8 187738342.66808  36053175.289 8 152552783.94308
C18  25410282.138 8 133531934.61408  25410289.216 9  99715433.61009  25410288.496 8 132318040.28708  25410288.885 8 107519247.58108
C25  23353807.992 8 122725090.04808  23353815.056 9  91645386.34009  23353814.359 8 121609439.70208  23353814.728 8  98817632.43708
C26  21794726.348 8 114532059.69908  21794733.410 9  85527215.07209  21794732.743 8 113490892.46708  21794733.116 8  92220647.78608
C27  24710192.194 8 129852935.04308  24710199.230 9  96968129.22609  24710198.632 8 128672488.07508  24710198.922 8 104556937.79608
C32  23650476.006 8 124284091.22408  23650483.108 9  92809575.52809  23650482.435 8 123154266.94408  23650482.742 8 100072931.92408
C33  22273792.634 8 117049570.27408  22273799.732 9  87407174.26809  22273799.155 8 115985516.65008  22273799.458 8  94247734.27608
C34  24952266.227 8 131125044.91608  24952273.303 9  97918079.90909  24952272.621 8 129933031.40408  24952273.006 8 105581232.50608
> 2022 12 01 00 47 30.0000000  0 16
C01                                                                  37973660.251 8 197738813.52908  37973660.592 8 160678984.69208
C02                                                                  38535231.435 8 200663062.32008  38535231.793 8 163055176.36908
C03                                                                  37646926.446 8 196037425.11908  37646926.827 8 159296467.23808
C04                                                                  38971913.620 8 202936981.58208  38971913.920 8 164902920.22608
C05                                                                  39896681.780 8 207752492.45808  39896682.200 8 168815918.26208
C06  39332526.312 8 206693822.79208  39332533.441 9 154349309.39909  39332532.800 8 204814818.34108  39332533.111 8 166428819.03308
C07  35957134.546 8 188956017.07708  35957141.624 9 141103546.88409  35957140.924 8 187238268.10608  35957141.230 8 152146431.39708
C09  36962856.096 8 194241120.68908  36962863.211 9 145050214.42209  36962862.544 8 192475324.59608  36962862.877 8 156401968.78008
C10  36056056.918 8 189475859.89908  36056064.027 9 141491739.70809  36056063.363 8 187753383.33008  36056063.688 8 152565005.71508
C18  25416537.777 8 133564808.29808  25416544.873 9  99739982.14509  25416544.202 8 132350615.12208  25416544.570 8 107545717.30708
C25  23342575.823 8 122666064.71708  23342582.911 9  91601308.98509  23342582.252 8 121550950.96208  23342582.589 8  98770105.54108
C26  21796776.657 8 114542834.18308  21796783.728 9  85535260.95809  21796783.063 8 113501569.00008  21796783.413 8  92229323.34808
C27  24723168.351 8 129921125.32908  24723175.448 9  97019050.55009  24723174.731 8 128740058.44608  24723175.105 8 104611844.26008
C32  23632620.515 8 124190259.80608  23632627.602 9  92739506.61709  23632626.853 8 123061288.53808  23632627.232 8  99997379.35208
C33  22271601.766 8 117038057.11408  22271608.896 9  87398576.78209  22271608.226 8 115974108.15108  22271608.571 8  94238463.93908
C34  24966230.087 8 131198425.47008  24966237.209 9  97972877.08209  24966236.537 8 130005744.85908  24966236.874 8 105640318.14508
> 2022 12 01 00 48  0.0000000  0 16
C01                                                                  37973567.836 8 197738332.19908  37973568.154 8 160678593.57208
C02                                                                  38535217.461 8 200662989.25608  38535217.837 8 163055117.00208
C03                                                                  37646608.322 8 196035768.47408  37646608.693 8 159295121.08408
C04                                                                  38971865.228 8 202936729.76108  38971865.578 8 164902715.60008
C05                                                                  39896678.515 8 207752475.35308  39896678.878 8 168815904.36308
C06  39343026.215 8 206749000.05908  39343033.309 9 154390513.20109  39343032.666 8 204869493.99008  39343032.985 8 166473247.48208
C07  35957849.253 8 188959773.08208  35957856.341 9 141106351.69009  35957855.659 8 187241989.96608  35957855.979 8 152149455.71508
C09  36960185.603 8 194227087.35708  36960192.755 9 145039734.98209  36960192.064 8 192461418.83408  36960192.427 8 156390669.21308
C10  36058970.545 8 189491170.79108  36058977.609 9 141503173.16309  36058976.889 8 187768555.03108  36058977.265 8 152577333.96208
C18  25422869.463 8 133598081.63108  25422876.580 9  99764829.10709  25422875.894 8 132383585.96708  25422876.262 8 107572508.82208
C25  23331364.698 8 122607149.92508  23331371.838 9  91557314.17209  23331371.080 8 121492571.76008  23331371.485 8  98722667.66108
C26  21798870.108 8 114553835.76108  21798877.291 9  85543476.41709  21798876.578 8 113512470.56608  21798876.942 8  92238181.76508
C27  24736167.608 8 129989436.97508  24736174.711 9  97070062.48409  24736174.033 8 128807749.07108  24736174.381 8 104666848.43708
C32  23614808.825 8 124096658.61108  23614815.890 9  92669609.61909  23614815.240 8 122968538.26508  23614815.528 8  99922012.16108
C33  22269512.123 8 117027076.18908  22269519.291 9  87390376.73609  22269518.596 8 115963227.05408  22269518.937 8  94229622.15608
C34  24980258.566 8 131272145.87708  24980265.738 9  98027928.03409  24980265.082 8 130078795.08408  24980265.398 8 105699677.43708
> 2022 12 01 00 48 30.0000000  0 16
C01                                                                  37973475.435 8 197737850.63808  37973475.690 8 160678202.26708
C02                                                                  38535203.326 8 200662915.15908  38535203.519 8 163055056.79008
C03                                                                  37646289.535 8 196034108.06508  37646289.831 8 159293771.86608
C04                                                                  38971816.868 8 202936478.01008  38971817.199 8 164902511.02908
C05                                                                  39896675.322 8 207752458.14608  39896675.564 8 168815890.38308
C06  39353530.984 8 206804203.09408  39353538.098 9 154431736.24809  39353537.469 8 204924195.18208  39353537.788 8 166517696.67708
C07  35958560.118 8 188963508.75708  35958567.260 9 141109141.32009  35958566.531 8 187245691.67808  35958566.853 8 152152463.65908
C09  36957530.731 8 194213135.62708  36957537.834 9 145029316.48409  36957537.159 8 192447593.93308  36957537.486 8 156379435.35008
C10  36061909.252 8 189506614.15608  36061916.388 9 141514705.54709  36061915.756 8 187783857.99808  36061916.042 8 152589768.87808
C18  25429276.954 8 133631753.02808  25429284.030 9  99789973.33609  25429283.385 8 132416951.26008  25429283.722 8 107599620.85908
C25  23320174.743 8 122548346.42508  23320181.886 9  91513402.47009  23320181.234 8 121434302.83708  23320181.564 8  98675319.38508
C26  21801006.946 8 114565064.91108  21801014.093 9  85551861.82509  21801013.522 8 113523597.63808  21801013.799 8  92247223.41908
C27  24749189.969 8 130057869.96008  24749197.047 9  97121165.04309  24749196.480 8 128875559.93908  24749196.759 8 104721950.32008
C32  23597041.374 8 124003290.04008  23597048.450 9  92599886.33809  23597047.771 8 122876018.50008  23597048.085 8  99846832.27008
C33  22267523.895 8 117016627.82108  22267531.009 9  87382574.39009  22267530.392 8 115952873.67608  22267530.719 8  94221209.18908
C34  24994351.424 8 131346204.08108  24994358.502 9  98083231.23909  24994357.856 8 130152180.03108  24994358.213 8 105759308.71708
> 2022 12 01 00 49  0.0000000  0 16
C01                                                                  37973382.792 8 197737368.85708  37973383.141 8 160677810.78208
C02                                                                  38535188.690 8 200662840.03108  38535189.165 8 163054995.74908
C03                                                                  37645969.904 8 196032443.90708  37645970.230 8 159292419.60308
C04                                                                  38971768.521 8 202936226.34308  38971768.861 8 164902306.53208
C05                                                                  39896671.870 8 207752440.83808  39896672.255 8 168815876.32008
C06  39364040.558 8 206859431.36108  39364047.699 9 154472978.13309  39364047.048 8 204978921.37108  39364047.379 8 166562166.19108
C07  35959267.127 8 188967223.97508  35959274.250 9 141111915.67309  35959273.495 8 187249373.12708  35959273.839 8 152155455.13708
C09  36954891.281 8 194199265.21508  36954898.382 9 145018958.71009  36954897.690 8 192433849.61808  36954898.047 8 156368266.97008
C10  36064873.269 8 189522190.19708  36064880.408 9 141526337.00409  36064879.713 8 187799292.43808  36064880.068 8 152602310.62708
C18  25435759.804 8 133665820.88508  25435766.950 9  99815413.61609  25435766.317 8 132450709.40708  25435766.632 8 107627052.12008
C25  23309006.127 8 122489654.94108  23309013.260 9  91469574.41109  23309012.618 8 121376144.90608  23309012.944 8  98628061.30308
C26  21803187.213 8 114576522.08208  21803194.358 9  85560417.50609  21803193.666 8 113534950.65908  21803193.988 8  92256448.67508
C27  24762235.363 8 130126424.25508  24762242.514 9  97172358.18509  24762241.849 8 128943491.01608  24762242.190 8 104777149.88408
C32  23579318.588 8 123910156.46408  23579325.702 9  92530338.53809  23579325.000 8 122783731.59308  23579325.345 8  99771841.59808
C33  22265637.019 8 117006712.29908  22265644.180 9  87375169.93809  22265643.551 8 115943048.29408  22265643.853 8  94213225.26808
C34  25008508.083 8 131420597.98408  25008515.193 9  98138785.12609  25008514.575 8 130225897.62908  25008514.897 8 105819210.30608
> 2022 12 01 00 49 30.0000000  0 16
C01                                                                  37973290.256 8 197736886.83308  37973290.574 8 160677419.09808
C02                                                                  38535174.319 8 200662763.85108  38535174.444 8 163054933.84208
C03                                                                  37645649.521 8 196030775.97708  37645649.946 8 159291064.27308
C04                                                                  38971720.182 8 202935974.73108  38971720.527 8 164902102.07008
C05                                                                  39896668.454 8 207752423.39908  39896668.911 8 168815862.15108
C06  39374554.820 8 206914684.28708  39374561.983 9 154514238.43909  39374561.290 8 205033672.00208  39374561.644 8 166606655.56108
C07  35959970.160 8 188970918.59508  35959977.313 9 141114674.64109  35959976.590 8 187253034.16008  35959976.920 8 152158430.02908
C09  36952267.261 8 194185475.81408  36952274.350 9 145008661.42809  36952273.719 8 192420185.57208  36952273.987 8 156357163.81108
C10  36067862.572 8 189537899.09508  36067869.708 9 141538067.67609  36067869.077 8 187814858.52908  36067869.380 8 152614959.34508
C18  25442317.855 8 133700283.53208  25442324.974 9  99841148.71309  25442324.309 8 132484858.76308  25442324.647 8 107654801.26708
C25  23297858.948 8 122431076.16208  23297866.070 9  91425830.52009  23297865.463 8 121318098.66608  23297865.760 8  98580893.98008
C26  21805410.956 8 114588207.70908  21805418.033 9  85569143.78309  21805417.368 8 113546530.05208  21805417.718 8  92265857.88408
C27  24775304.015 8 130195099.79508  24775311.069 9  97223641.86709  24775310.416 8 129011542.22708  24775310.704 8 104832447.06908
C32  23561641.056 8 123817260.21708  23561648.126 9  92460967.96209  23561647.406 8 122691679.85608  23561647.770 8  99697042.02208
C33  22263851.646 8 116997329.84508  22263858.724 9  87368163.56109  22263858.108 8 115933751.13808  22263858.429 8  94205670.56008
C34  25022728.288 8 131495325.46008  25022735.385 9  98194588.11109  25022734.706 8 130299945.76208  25022735.065 8 105879380.48008
> 2022 12 01 00 50  0.0000000  0 16
C01                                                                  37973197.635 8 197736404.56908  37973197.975 8 160677027.21508
C02                                                                  38535159.245 8 200662686.61808  38535159.715 8 163054871.08008
C03                                                                  37645328.467 8 196029104.29008  37645328.897 8 159289705.89008
C04                                                                  38971671.960 8 202935723.17808  38971672.243 8 164901897.66908
C05                                                                  39896665.208 8 207752405.83808  39896665.521 8 168815847.87808
C06  39385073.764 8 206969961.33508  39385080.851 9 154555516.74909  39385080.201 8 205088446.52908  39385080.532 8 166651164.34808
C07  35960669.372 8 188974592.49608  35960676.400 9 141117418.14009  35960675.684 8 187256674.66908  35960676.011 8 152161388.24108
C09  36949658.560 8 194171767.13508  36949665.677 9 144998424.42509  36949665.006 8 192406601.51408  36949665.326 8 156346125.64908
C10  36070877.209 8 189553741.04208  36070884.310 9 141549897.69909  36070883.662 8 187830556.45808  36070883.978 8 152627715.20108
C18  25448950.691 8 133735139.34008  25448957.801 9  99867177.39909  25448957.107 8 132519397.69708  25448957.466 8 107682866.98108
C25  23286733.400 8 122372610.82708  23286740.502 9  91382171.33909  23286739.833 8 121260164.82808  23286740.176 8  98533817.99208
C26  21807678.107 8 114600122.22408  21807685.293 9  85578040.98809  21807684.687 8 113558336.25808  21807684.976 8  92275451.39108
C27  24788395.504 8 130263896.52408  24788402.625 9  97275016.04909  24788402.003 8 129079713.53308  24788402.295 8 104887841.83908
C32  23544009.055 8 123724603.66208  23544016.188 9  92391776.37909  23544015.454 8 122599865.63208  23544015.823 8  99622435.44208
C33  22262167.659 8 116988480.68408  22262174.815 9  87361555.42209  22262174.144 8 115924982.42708  22262174.505 8  94198545.26408
C34  25037011.519 8 131570384.39508  25037018.596 9  98250638.61709  25037017.967 8 130374322.34908  25037018.304 8 105939817.54508
> 2022 12 01 00 50 30.0000000  0 16
C01                                                                  37973104.943 8 197735922.08308  37973105.341 8 160676635.15808
C02                                                                  38535144.524 8 200662608.33908  38535144.609 8 163054807.47808
C03                                                                  37645006.899 8 196027428.86208  37645007.159 8 159288344.47008
C04                                                                  38971623.703 8 202935471.70808  38971623.989 8 164901693.33208
C05                                                                  39896661.688 8 207752388.17508  39896662.158 8 168815833.52408
C06  39395597.116 8 207025261.96708  39395604.222 9 154596812.67709  39395603.516 8 205143244.42708  39395603.884 8 166695692.13708
C07  35961364.459 8 188978245.57508  35961371.561 9 141120146.08609  35961370.864 8 187260294.53608  35961371.186 8 152164329.68408
C09  36947065.195 8 194158138.90008  36947072.317 9 144988247.49709  36947071.612 8 192393097.16808  36947071.971 8 156335152.26708
C10  36073917.215 8 189569716.25008  36073924.304 9 141561827.23609  36073923.739 8 187846386.43208  36073923.978 8 152640578.35508
C18  25455658.062 8 133770386.65308  25455665.160 9  99893498.44109  25455664.384 8 132554324.58108  25455664.807 8 107711247.93608
C25  23275629.536 8 122314259.68108  23275636.645 9  91338597.43109  23275635.981 8 121202344.14608  23275636.330 8  98486833.95308
C26  21809989.091 8 114612266.09908  21809996.212 9  85587109.46509  21809995.621 8 113570369.73508  21809995.905 8  92285229.57908
C27  24801510.200 8 130332814.41608  24801517.262 9  97326480.70609  24801516.561 8 129148004.89608  24801516.932 8 104943334.16908
C32  23526423.188 8 123632189.16908  23526430.271 9  92322765.55209  23526429.649 8 122508291.26508  23526429.930 8  99548023.77308
C33  22260585.270 8 116980165.05108  22260592.402 9  87355345.69409  22260591.749 8 115916742.39008  22260592.094 8  94191849.56408
C34  25051357.451 8 131645772.69308  25051364.540 9  98306935.07209  25051363.916 8 130449025.29608  25051364.227 8 106000519.81608
> 2022 12 01 00 51  0.0000000  0 16
C01                                                                  37973012.233 8 197735439.38208  37973012.600 8 160676242.92308
C02                                                                  38535128.909 8 200662529.04208  38535129.446 8 163054743.03708
C03                                                                  37644684.428 8 196025749.71908  37644684.688 8 159286980.02408
C04                                                                  38971575.293 8 202935220.32408  38971575.696 8 164901489.05708
C05                                                                  39896658.326 8 207752370.40108  39896658.711 8 168815819.08108
C06  39406124.875 8 207080585.65408  39406131.963 9 154638125.82109  39406131.245 8 205198065.17208  39406131.637 8 166740238.47608
C07  35962055.620 8 188981877.72708  35962062.744 9 141122858.40709  35962061.994 8 187263893.66908  35962062.354 8 152167254.26708
C09  36944487.112 8 194144590.82708  36944494.207 9 144978130.43309  36944493.516 8 192379672.26208  36944493.863 8 156324243.42708
C10  36076982.587 8 189585824.92408  36076989.679 9 141573856.44209  36076989.028 8 187862348.66308  36076989.327 8 152653548.97208
C18  25462439.536 8 133806023.81308  25462446.631 9  99920110.60709  25462445.967 8 132589637.76908  25462446.332 8 107739942.78708
C25  23264547.484 8 122256023.47608  23264554.664 9  91295109.35509  23264554.034 8 121144637.36108  23264554.347 8  98439942.45808
C26  21812343.716 8 114624639.79208  21812350.829 9  85596349.55809  21812350.203 8 113582630.94108  21812350.515 8  92295192.81108
C27  24814647.889 8 130401853.43508  24814654.963 9  97378035.81709  24814654.305 8 129216416.28308  24814654.625 8 104998924.01808
C32  23508883.748 8 123540019.09008  23508890.888 9  92253937.24909  23508890.197 8 122416959.09608  23508890.554 8  99473808.90208
C33  22259104.377 8 116972383.14508  22259111.523 9  87349534.53109  22259110.873 8 115909031.22908  22259111.225 8  94185583.61008
C34  25065765.635 8 131721488.24608  25065772.730 9  98363475.90609  25065772.034 8 130524052.52508  25065772.389 8 106061485.58108
> 2022 12 01 00 51 30.0000000  0 16
C01                                                                  37972919.496 8 197734956.45308  37972919.890 8 160675850.50308
C02                                                                  38535113.804 8 200662448.67608  38535113.921 8 163054677.74408
C03                                                                  37644361.224 8 196024066.83208  37644361.510 8 159285612.54008
C04                                                                  38971526.995 8 202934969.00108  38971527.407 8 164901284.83708
C05                                                                  39896655.129 8 207752352.51208  39896655.294 8 168815804.54608
C06  39416656.860 8 207135931.81508  39416663.979 9 154679455.74909  39416663.302 8 205252908.18408  39416663.650 8 166784802.91808
C07  35962742.756 8 188985488.80108  35962749.922 9 141125554.99009  35962749.166 8 187267471.91808  35962749.520 8 152170161.88908
C09  36941924.143 8 194131122.60808  36941931.264 9 144968072.99509  36941930.610 8 192366326.47708  36941930.892 8 156313398.88608
C10  36080073.394 8 189602067.22508  36080080.497 9 141585985.43209  36080079.849 8 187878443.30608  36080080.145 8 152666627.18908
C18  25469294.941 8 133842049.10708  25469302.046 9  99947012.61509  25469301.389 8 132625335.56108  25469301.714 8 107768950.17108
C25  23253487.561 8 122197902.92508  23253494.691 9  91251707.64809  23253493.990 8 121087045.18008  23253494.359 8  98393144.09308
C26  21814742.148 8 114637243.71308  21814749.297 9  85605761.58309  21814748.621 8 113595120.28908  21814748.947 8  92305341.43208
C27  24827808.555 8 130471013.49208  24827815.665 9  97429681.31409  24827815.001 8 129284947.61008  24827815.318 8 105054611.34008
C32  23491391.331 8 123448095.74608  23491398.478 9  92185293.19309  23491397.796 8 122325871.42408  23491398.118 8  99399792.70608
C33  22257725.220 8 116965135.10208  22257732.250 9  87344122.03309  22257731.592 8 115901849.07908  22257731.950 8  94179747.52608
C34  25080235.696 8 131797528.89608  25080242.785 9  98420259.50909  25080242.084 8 130599401.89908  25080242.457 8 106122713.11808
> 2022 12 01 00 52  0.0000000  0 16
C01                                                                  37972826.754 8 197734473.29808  37972827.095 8 160675457.90308
C02                                                                  38535097.983 8 200662367.28808  38535098.377 8 163054611.60208
C03                                                                  37644037.224 8 196022380.23108  37644037.617 8 159284242.04408
C04                                                                  38971478.804 8 202934717.75908  38971479.167 8 164901080.68808
C05                                                                  39896651.422 8 207752334.50108  39896651.856 8 168815789.91608
C06  39427193.101 8 207191299.91908  39427200.165 9 154720802.05609  39427199.487 8 205307772.94408  39427199.865 8 166829385.03208
C07  35963425.917 8 188989078.70108  35963433.026 9 141128235.76009  35963432.282 8 187271029.18608  35963432.670 8 152173052.46308
C09  36939376.377 8 194117733.94808  36939383.490 9 144958074.97009  36939382.805 8 192353059.53308  36939383.141 8 156302618.40908
C10  36083189.646 8 189618443.35408  36083196.734 9 141598214.36109  36083196.100 8 187894670.56308  36083196.431 8 152679813.16608
C18  25476223.841 8 133878460.85808  25476230.972 9  99974203.20409  25476230.374 8 132661416.29208  25476230.641 8 107798268.72508
C25  23242449.745 8 122139898.80008  23242456.873 9  91208392.87609  23242456.188 8 121029568.36208  23242456.527 8  98346439.47408
C26  21817184.481 8 114650078.34508  21817191.619 9  85615345.87909  21817190.958 8 113607838.23908  21817191.311 8  92315675.80808
C27  24840992.296 8 130540294.54408  24840999.418 9  97481417.16709  24840998.717 8 129353598.83508  24840999.067 8 105110396.08608
C32  23473946.303 8 123356421.49808  23473953.445 9  92116835.15009  23473952.771 8 122235030.57208  23473953.101 8  99325977.07908
C33  22256447.541 8 116958421.09708  22256454.652 9  87339108.32309  22256453.951 8 115895196.10908  22256454.341 8  94174341.44508
C34  25094767.167 8 131873892.53208  25094774.313 9  98477284.30109  25094773.677 8 130675071.31608  25094773.965 8 106184200.72308
> 2022 12 01 00 52 30.0000000  0 16
C01                                                                  37972733.964 8 197733989.92408  37972734.273 8 160675065.11908
C02                                                                  38535082.176 8 200662284.84508  38535082.458 8 163054544.60708
C03                                                                  37643712.669 8 196020689.91408  37643713.000 8 159282868.52008
C04                                                                  38971430.578 8 202934466.59308  38971430.918 8 164900876.58708
C05                                                                  39896647.943 8 207752316.37608  39896648.337 8 168815775.18808
C06  39437733.303 8 207246689.41408  39437740.458 9 154762164.34209  39437739.714 8 205362658.89508  39437740.110 8 166873984.36208
C07  35964104.986 8 188992647.31408  35964112.117 9 141130900.63109  35964111.383 8 187274565.35708  35964111.737 8 152175925.89108
C09  36936843.705 8 194104424.56508  36936850.805 9 144948136.14009  36936850.056 8 192339871.14108  36936850.455 8 156291901.75408
C10  36086331.400 8 189634953.49808  36086338.529 9 141610543.36309  36086337.854 8 187911030.61308  36086338.201 8 152693107.04308
C18  25483226.026 8 133915257.33808  25483233.118 9 100001681.09709  25483232.407 8 132697878.26308  25483232.793 8 107827897.06008
C25  23231434.236 8 122082011.84108  23231441.363 9  91165165.60209  23231440.641 8 120972207.64708  23231441.021 8  98299829.19308
C26  21819670.811 8 114663144.11008  21819677.962 9  85625102.78409  21819677.230 8 113620785.22708  21819677.649 8  92326196.29808
C27  24854199.053 8 130609696.53908  24854206.182 9  97533243.33109  24854205.511 8 129422369.90208  24854205.875 8 105166278.20808
C32  23456549.169 8 123264998.66708  23456556.264 9  92048564.85609  23456555.557 8 122144438.85908  23456555.897 8  99252363.88808
C33  22255271.521 8 116952241.23908  22255278.636 9  87334493.49609  22255278.000 8 115889072.43408  22255278.340 8  94169365.45308
C34  25109359.736 8 131950577.01208  25109366.862 9  98534548.68309  25109366.173 8 130751058.66508  25109366.562 8 106245946.66308
> 2022 12 01 00 53  0.0000000  0 16
C01                                                                  37972641.084 8 197733506.33508  37972641.402 8 160674672.16508
C02                                                                  38535066.137 8 200662201.35708  38535066.513 8 163054476.77008
C03                                                                  37643387.398 8 196018995.89708  37643387.694 8 159281491.99108
C04                                                                  38971382.418 8 202934215.51008  38971382.727 8 164900672.56408
C05                                                                  39896644.598 8 207752298.15008  39896644.862 8 168815760.37508
C06  39448277.590 8 207302099.75408  39448284.688 9 154803542.19509  39448284.041 8 205417565.50508  39448284.368 8 166918600.48008
C07  35964780.062 8 188996194.53408  35964787.116 9 141133549.53109  35964786.437 8 187278080.33108  35964786.763 8 152178782.09808
C09  36934326.049 8 194091194.15108  36934333.132 9 144938256.29009  36934332.416 8 192326761.00608  36934332.767 8 156281248.69908
C10  36089498.755 8 189651597.84008  36089505.879 9 141622972.58309  36089505.175 8 187927523.64308  36089505.515 8 152706508.98308
C18  25490300.970 8 133952436.83708  25490308.120 9 100029445.01009  25490307.453 8 132734719.76408  25490307.821 8 107857833.79808
C25  23220441.130 8 122024242.82408  23220448.267 9  91122026.40209  23220447.591 8 120914963.80508  23220447.961 8  98253313.88308
C26  21822201.262 8 114676441.47608  21822208.353 9  85635032.63609  21822207.703 8 113633961.70908  21822208.070 8  92336903.26508
C27  24867428.834 8 130679219.42208  24867435.918 9  97585159.77209  24867435.245 8 129491260.75708  24867435.598 8 105222257.67108
C32  23439200.264 8 123173829.60508  23439207.372 9  91980484.06409  23439206.685 8 122054098.60408  23439207.001 8  99178955.03308
C33  22254197.237 8 116946595.64708  22254204.349 9  87330277.63609  22254203.692 8 115883478.16908  22254204.028 8  94164819.65508
C34  25124012.954 8 132027580.20108  25124020.112 9  98592051.06609  25124019.430 8 130827361.82508  25124019.770 8 106307949.23608
> 2022 12 01 00 53 30.0000000  0 16
C01                                                                  37972548.186 8 197733022.53308  37972548.477 8 160674279.03708
C02                                                                  38535049.878 8 200662116.83908  38535050.236 8 163054408.08808
C03                                                                  37643061.310 8 196017298.18608  37643061.668 8 159280112.46008
C04                                                                  38971334.165 8 202933964.51008  38971334.555 8 164900468.60308
C05                                                                  39896640.846 8 207752279.80208  39896641.330 8 168815745.45908
C06  39458825.728 8 207357530.38908  39458832.780 9 154844935.20109  39458832.098 8 205472492.22708  39458832.460 8 166963232.93908
C07  35965450.980 8 188999720.25008  35965458.055 9 141136182.36809  35965457.306 8 187281573.99808  35965457.670 8 152181620.98008
C09  36931823.323 8 194078042.42308  36931830.443 9 144928435.19609  36931829.783 8 192313728.83708  36931830.106 8 156270658.99108
C10  36092691.622 8 189668376.56608  36092698.745 9 141635502.15109  36092698.102 8 187944149.83508  36092698.390 8 152720019.12608
C18  25497448.577 8 133989997.62308  25497455.722 9 100057493.64709  25497455.074 8 132771939.08508  25497455.392 8 107888077.54508
C25  23209470.701 8 121966592.51108  23209477.809 9  91078975.84309  23209477.100 8 120857837.58008  23209477.441 8  98206894.14308
C26  21824775.787 8 114689970.87708  21824782.906 9  85645135.76109  21824782.240 8 113647368.11908  21824782.597 8  92347797.07108
C27  24880681.549 8 130748863.12408  24880688.694 9  97637166.43209  24880687.998 8 129560271.33208  24880688.380 8 105278334.41508
C32  23421900.081 8 123082916.62208  23421907.168 9  91912594.49809  23421906.541 8 121964012.10408  23421906.833 8  99105752.36908
C33  22253224.620 8 116941484.40708  22253231.718 9  87326460.80209  22253231.021 8 115878413.39608  22253231.367 8  94160704.11008
C34  25138726.371 8 132104899.95308  25138733.534 9  98649789.84409  25138732.911 8 130903978.67408  25138733.224 8 106370206.69808
> 2022 12 01 00 54  0.0000000  0 16
C01                                                                  37972455.163 8 197732538.51308  37972455.539 8 160673885.72708
C02                                                                  38535033.632 8 200662031.26008  38535033.776 8 163054338.55008
C03                                                                  37642734.595 8 196015596.77308  37642734.922 8 159278729.92308
C04                                                                  38971285.966 8 202933713.57308  38971286.350 8 164900264.69608
C05                                                                  39896637.448 8 207752261.32808  39896637.734 8 168815730.44808
C06  39469377.523 8 207412980.75508  39469384.689 9 154886342.94209  39469384.041 8 205527438.49908  39469384.343 8 167007881.28308
C07  35966117.754 8 189003224.33808  35966124.847 9 141138799.06009  35966124.141 8 187285046.23008  35966124.489 8 152184442.46008
C09  36929335.587 8 194064969.06208  36929342.677 9 144918672.62109  36929342.063 8 192300774.31908  36929342.342 8 156260132.38408
C10  36095910.125 8 189685289.84108  36095917.239 9 141648132.19409  36095916.606 8 187960909.35308  36095916.883 8 152733637.60508
C18  25504668.379 8 134027937.91108  25504675.509 9 100085825.68609  25504674.866 8 132809534.47008  25504675.195 8 107918626.87008
C25  23198522.960 8 121909061.65408  23198530.019 9  91036014.49009  23198529.280 8 120800829.72808  23198529.710 8  98160570.59308
C26  21827394.601 8 114703732.75608  21827401.748 9  85655412.48909  21827401.086 8 113661004.88708  21827401.415 8  92358878.06108
C27  24893957.328 8 130818627.57208  24893964.428 9  97689263.25609  24893963.758 8 129629401.55408  24893964.087 8 105334508.38308
C32  23404649.072 8 122992262.03308  23404656.221 9  91844897.89109  23404655.495 8 121874181.64508  23404655.856 8  99032757.76208
C33  22252353.620 8 116936907.56908  22252360.785 9  87323043.03109  22252360.159 8 115873878.16508  22252360.441 8  94157018.86108
C34  25153499.695 8 132182534.11308  25153506.826 9  98707763.40709  25153506.226 8 130980907.07108  25153506.526 8 106432717.32008
> 2022 12 01 00 54 30.0000000  0 16
C01                                                                  37972362.193 8 197732054.30108  37972362.578 8 160673492.26708
C02                                                                  38535016.846 8 200661944.65708  38535017.226 8 163054268.17908
C03                                                                  37642407.134 8 196013891.69708  37642407.483 8 159277344.40908
C04                                                                  38971237.802 8 202933462.74308  38971238.146 8 164900060.88208
C05                                                                  39896633.862 8 207752242.75408  39896634.238 8 168815715.35408
C06  39479933.029 8 207468450.32808  39479940.143 9 154927765.02809  39479939.538 8 205582403.80208  39479939.827 8 167052545.09808
C07  35966780.477 8 189006706.73008  35966787.526 9 141141399.54909  35966786.858 8 187288496.96608  35966787.140 8 152187246.46808
C09  36926862.573 8 194051973.80108  36926869.743 9 144908968.36809  36926869.072 8 192287897.19708  36926869.410 8 156249668.66908
C10  36099154.293 8 189702337.87008  36099161.370 9 141660862.86909  36099160.728 8 187977802.39808  36099161.027 8 152747364.59108
C18  25511960.105 8 134066255.99908  25511967.198 9 100114439.84009  25511966.517 8 132847504.20808  25511966.875 8 107949480.39608
C25  23187598.011 8 121851651.06108  23187605.174 9  90993142.94609  23187604.444 8 120743941.05208  23187604.819 8  98114343.88608
C26  21830057.773 8 114717727.58208  21830064.846 9  85665863.17309  21830064.129 8 113674872.49508  21830064.520 8  92370146.63408
C27  24907256.048 8 130888512.71908  24907263.129 9  97741450.22109  24907262.466 8 129698651.38708  24907262.797 8 105390779.54308
C32  23387447.743 8 122901868.18808  23387454.842 9  91777395.99609  23387454.142 8 121784609.56508  23387454.459 8  98959973.10808
C33  22251584.434 8 116932865.21308  22251591.529 9  87320024.38809  22251590.874 8 115869872.55708  22251591.212 8  94153763.98108
C34  25168332.440 8 132260480.55708  25168339.537 9  98765970.16409  25168338.871 8 131058144.91008  25168339.247 8 106495479.39808
> 2022 12 01 00 55  0.0000000  0 16
C01                                                                  37972269.228 8 197731569.86508  37972269.519 8 160673098.62208
C02                                                                  38534999.966 8 200661857.00708  38535000.355 8 163054196.95608
C03                                                                  37642078.952 8 196012182.93408  37642079.328 8 159275955.90108
C04                                                                  38971189.656 8 202933211.98408  38971189.978 8 164899857.11208
C05                                                                  39896630.235 8 207752224.05908  39896630.620 8 168815700.16708
C06  39490492.106 8 207523938.52908  39490499.202 9 154969201.02009  39490498.640 8 205637387.56208  39490498.873 8 167097223.90608
C07  35967438.987 8 189010167.29108  35967446.056 9 141143983.73409  35967445.322 8 187291926.06808  35967445.685 8 152190032.88908
C09  36924404.508 8 194039056.31008  36924411.645 9 144899322.18909  36924410.909 8 192275097.13508  36924411.300 8 156239267.57108
C10  36102424.034 8 189719520.80408  36102431.185 9 141673694.27809  36102430.436 8 187994829.12208  36102430.816 8 152761200.19408
C18  25519323.315 8 134104950.06808  25519330.419 9 100143334.75909  25519329.800 8 132885846.51008  25519330.119 8 107980636.65608
C25  23176696.181 8 121794361.48608  23176703.322 9  90950361.77009  23176702.579 8 120687172.29108  23176702.988 8  98068214.62008
C26  21832765.290 8 114731955.78208  21832772.349 9  85676488.12709  21832771.634 8 113688971.34508  21832772.084 8  92381603.10008
C27  24920577.664 8 130958518.48008  24920584.811 9  97793727.24909  24920584.137 8 129768020.72908  24920584.443 8 105447147.81708
C32  23370296.389 8 122811737.36908  23370303.537 9  91710090.51109  23370302.823 8 121695298.11208  23370303.145 8  98887400.23808
C33  22250916.906 8 116929357.32708  22250923.999 9  87317404.86309  22250923.355 8 115866396.56008  22250923.687 8  94150939.45008
C34  25183224.126 8 132338737.09308  25183231.296 9  98824408.48909  25183230.608 8 131135690.02508  25183230.958 8 106558491.15208
> 2022 12 01 00 55 30.0000000  0 16
C01                                                                  37972176.080 8 197731085.23408  37972176.469 8 160672704.81608
C02                                                                  38534983.063 8 200661768.31908  38534983.287 8 163054124.88408
C03                                                                  37641750.190 8 196010470.51908  37641750.481 8 159274564.42408
C04                                                                  38971141.554 8 202932961.31408  38971141.899 8 164899653.43208
C05                                                                  39896626.658 8 207752205.25308  39896626.944 8 168815684.88808
C06  39501054.580 8 207579444.82208  39501061.707 9 155010650.52509  39501061.037 8 205692389.25908  39501061.389 8 167141917.28408
C07  35968093.312 8 189013605.93308  35968100.431 9 141146551.55009  35968099.762 8 187295333.45408  35968100.052 8 152192801.66708
C09  36921961.167 8 194026216.30608  36921968.277 9 144889733.87609  36921967.624 8 192262373.86008  36921967.940 8 156228928.86408
C10  36105719.602 8 189736838.83108  36105726.686 9 141686626.56809  36105726.040 8 188011989.71208  36105726.360 8 152775144.57708
C18  25526757.735 8 134144018.34708  25526764.879 9 100172509.12509  25526764.235 8 132924559.62708  25526764.576 8 108012094.23208
C25  23165817.509 8 121737193.73608  23165824.645 9  90907671.56709  23165824.020 8 120630524.24708  23165824.336 8  98022183.44108
C26  21835517.375 8 114746417.81308  21835524.424 9  85687287.69609  21835523.748 8 113703301.90508  21835524.083 8  92393247.85508
C27  24933922.257 8 131028644.79808  24933929.384 9  97846094.30209  24933928.746 8 129837509.53108  24933929.059 8 105503613.15808
C32  23353195.609 8 122721871.89708  23353202.692 9  91642983.17709  23353201.916 8 121606249.60008  23353202.293 8  98815041.02508
C33  22250351.109 8 116926383.93808  22250358.198 9  87315184.47609  22250357.628 8 115863450.20108  22250357.862 8  94148545.29208
C34  25198174.476 8 132417301.59408  25198181.597 9  98883076.78309  25198181.018 8 131213540.30108  25198181.285 8 106621750.87708
> 2022 12 01 00 56  0.0000000  0 16
C01                                                                  37972082.972 8 197730600.38108  37972083.348 8 160672310.84008
C02                                                                  38534965.798 8 200661678.57408  38534966.125 8 163054051.95908
C03                                                                  37641420.591 8 196008754.42208  37641420.936 8 159273169.95308
C04                                                                  38971093.489 8 202932710.71408  38971093.762 8 164899449.79508
C05                                                                  39896623.157 8 207752186.31908  39896623.412 8 168815669.49508
C06  39511620.452 8 207634968.63008  39511627.542 9 155052113.11009  39511626.842 8 205747408.30308  39511627.217 8 167186624.76908
C07  35968743.444 8 189017022.54508  35968750.579 9 141149102.91309  35968749.967 8 187298719.00208  35968750.212 8 152195552.70408
C09  36919532.490 8 194013453.46908  36919539.576 9 144880203.18309  36919538.934 8 192249727.04408  36919539.254 8 156218652.29108
C10  36109040.783 8 189754292.09308  36109047.939 9 141699659.85009  36109047.266 8 188029284.30708  36109047.586 8 152789197.85708
C18  25534263.057 8 134183459.02508  25534270.196 9 100201961.57909  25534269.594 8 132963641.75708  25534269.882 8 108043851.66108
C25  23154962.257 8 121680148.57808  23154969.347 9  90865072.90909  23154968.687 8 120573997.68108  23154968.993 8  97976250.97608
C26  21838313.855 8 114761114.10208  21838321.017 9  85698262.19309  21838320.359 8 113717864.59108  21838320.724 8  92405081.23108
C27  24947289.814 8 131098891.56908  24947296.903 9  97898551.31009  24947296.250 8 129907117.69708  24947296.571 8 105560175.49508
C32  23336145.639 8 122632274.05308  23336152.769 9  91576075.69809  23336152.138 8 121517466.28108  23336152.421 8  98742897.30908
C33  22249886.881 8 116923944.99908  22249894.058 9  87313363.19109  22249893.420 8 115861033.44308  22249893.771 8  94146581.47508
C34  25213183.016 8 132496171.85108  25213190.134 9  98941973.40509  25213189.527 8 131291693.55808  25213189.806 8 106685256.80108
> 2022 12 01 00 56 30.0000000  0 16
C01                                                                  37971989.863 8 197730115.35308  37971990.213 8 160671916.70708
C02                                                                  38534948.220 8 200661587.80608  38534948.676 8 163053978.20908
C03                                                                  37641090.254 8 196007034.70008  37641090.679 8 159271772.54308
C04                                                                  38971045.289 8 202932460.23608  38971045.647 8 164899246.25208
C05                                                                  39896619.280 8 207752167.28008  39896619.709 8 168815654.03508
C06  39522189.463 8 207690509.44408  39522196.571 9 155093588.39209  39522195.956 8 205802444.19408  39522196.268 8 167231345.94408
C07  35969389.334 8 189020417.05708  35969396.539 9 141151637.77709  35969395.862 8 187302082.65608  35969396.146 8 152198285.94908
C09  36917118.374 8 194000767.52508  36917125.520 9 144870729.91409  36917124.883 8 192237156.42708  36917125.162 8 156208437.63708
C10  36112387.794 8 189771880.80608  36112394.925 9 141712794.27909  36112394.222 8 188046713.12408  36112394.592 8 152803360.19908
C18  25541838.981 8 134223270.32708  25541845.994 9 100231690.79909  25541845.390 8 133003091.13508  25541845.684 8 108075907.51908
C25  23144130.340 8 121623226.84908  23144137.452 9  90822566.42109  23144136.790 8 120517593.41708  23144137.136 8  97930417.89208
C26  21841155.207 8 114776045.13008  21841162.305 9  85709411.99109  21841161.628 8 113732659.88508  21841161.989 8  92417103.62208
C27  24960680.215 8 131169258.76108  24960687.316 9  97951098.24009  24960686.587 8 129976845.18908  24960686.984 8 105616834.79508
C32  23319147.156 8 122542946.16908  23319154.214 9  91509369.80809  23319153.556 8 121428950.46908  23319153.846 8  98670970.96408
C33  22249524.545 8 116922040.52708  22249531.658 9  87311941.01809  22249530.946 8 115859146.28008  22249531.354 8  94145048.00008
C34  25228249.346 8 132575345.75108  25228256.409 9  99001096.77209  25228255.698 8 131370147.70008  25228256.105 8 106749007.21808
> 2022 12 01 00 57  0.0000000  0 16
C01                                                                  37971896.644 8 197729630.12908  37971897.015 8 160671522.42808
C02                                                                  38534930.655 8 200661496.00408  38534930.978 8 163053903.61108
C03                                                                  37640759.381 8 196005311.33808  37640759.721 8 159270372.16708
C04                                                                  38970997.269 8 202932209.83208  38970997.542 8 164899042.78808
C05                                                                  39896615.756 8 207752148.14008  39896616.007 8 168815638.47308
C06  39532761.708 8 207746066.67808  39532768.796 9 155135075.93709  39532768.146 8 205857496.36808  39532768.467 8 167276080.34008
C07  35970031.136 8 189023789.35608  35970038.266 9 141154156.05309  35970037.593 8 187305424.29908  35970037.902 8 152201001.30608
C09  36914718.894 8 193988158.15808  36914726.038 9 144861313.82709  36914725.384 8 192224661.68808  36914725.715 8 156198284.63708
C10  36115760.656 8 189789605.11508  36115767.782 9 141726029.96309  36115767.122 8 188064276.30008  36115767.449 8 152817631.71708
C18  25549484.917 8 134263450.40808  25549492.058 9 100261695.40509  25549491.449 8 133042905.94008  25549491.728 8 108108260.31308
C25  23133322.153 8 121566429.32108  23133329.286 9  90780152.68409  23133328.525 8 120461312.23508  23133328.945 8  97884684.81808
C26  21844041.269 8 114791211.32708  21844048.331 9  85720737.39509  21844047.698 8 113747688.20908  21844048.035 8  92429315.36308
C27  24974093.565 8 131239746.27708  24974100.666 9  98003735.02109  24974099.974 8 130046691.90908  24974100.313 8 105673590.97608
C32  23302200.404 8 122453890.52408  23302207.513 9  91442867.21809  23302206.831 8 121340704.41608  23302207.174 8  98599263.81408
C33  22249263.799 8 116920670.42608  22249270.923 9  87310917.89309  22249270.268 8 115857788.63408  22249270.648 8  94143944.80508
C34  25243372.987 8 132654821.10208  25243380.073 9  99060445.24809  25243379.454 8 131448900.54708  25243379.773 8 106813000.35408
> 2022 12 01 00 57 30.0000000  0 16
C01                                                                  37971803.549 8 197729144.68208  37971803.795 8 160671127.96608
C02                                                                  38534912.930 8 200661403.12508  38534913.190 8 163053828.14508
C03                                                                  37640427.716 8 196003584.31908  37640428.070 8 159268968.82308
C04                                                                  38970949.208 8 202931959.50808  38970949.472 8 164898839.37708
C05                                                                  39896611.991 8 207752128.86108  39896612.340 8 168815622.80808
C06  39543336.920 8 207801639.75608  39543343.998 9 155176575.31409  39543343.314 8 205912564.23608  39543343.668 8 167320827.49508
C07  35970668.652 8 189027139.32108  35970675.742 9 141156657.65209  35970675.059 8 187308743.81608  35970675.376 8 152203698.69108
C09  36912333.948 8 193975625.03208  36912341.051 9 144851954.67709  36912340.453 8 192212242.50008  36912340.742 8 156188193.03208
C10  36119159.307 8 189807465.15208  36119166.424 9 141739367.00609  36119165.788 8 188081973.97508  36119166.084 8 152832012.53008
C18  25557200.784 8 134303997.41408  25557207.873 9 100291974.01309  25557207.256 8 133083084.33908  25557207.557 8 108140908.54808
C25  23122537.780 8 121509756.79008  23122544.840 9  90737832.28609  23122544.156 8 120405154.90608  23122544.511 8  97839052.39108
C26  21846972.049 8 114806613.10908  21846979.189 9  85732238.72609  21846978.547 8 113762949.97408  21846978.892 8  92441716.79708
C27  24987529.764 8 131310354.00708  24987536.839 9  98056461.57009  24987536.145 8 130116657.75208  24987536.559 8 105730443.95508
C32  23285305.949 8 122365109.36708  23285313.045 9  91376569.60209  23285312.374 8 121252730.36508  23285312.649 8  98527777.69208
C33  22249104.761 8 116919834.60408  22249111.874 9  87310293.73909  22249111.320 8 115856960.40908  22249111.590 8  94143271.80808
C34  25258553.550 8 132734595.69908  25258560.652 9  99120017.18609  25258559.991 8 131527949.92108  25258560.364 8 106877234.45208
> 2022 12 01 00 58  0.0000000  0 16
C01                                                                  37971710.190 8 197728659.07508  37971710.544 8 160670733.37108
C02                                                                  38534894.981 8 200661309.26208  38534895.124 8 163053751.86808
C03                                                                  37640095.381 8 196001853.71008  37640095.726 8 159267562.55808
C04                                                                  38970901.111 8 202931709.30208  38970901.393 8 164898636.06608
C05                                                                  39896608.235 8 207752109.49108  39896608.669 8 168815607.07008
C06  39553915.017 8 207857228.18608  39553922.131 9 155218086.15609  39553921.461 8 205967647.31308  39553921.811 8 167365587.00908
C07  35971301.837 8 189030466.92808  35971308.932 9 141159142.55509  35971308.285 8 187312041.17108  35971308.568 8 152206378.05708
C09  36909963.488 8 193963167.90408  36909970.523 9 144842652.27809  36909969.898 8 192199898.61508  36909970.208 8 156178162.61708
C10  36122583.851 8 189825461.15008  36122590.940 9 141752805.57209  36122590.300 8 188099806.37108  36122590.614 8 152846502.81308
C18  25564986.065 8 134344909.55808  25564993.190 9 100322525.29309  25564992.561 8 133123624.55708  25564992.900 8 108173850.79808
C25  23111777.199 8 121453210.12108  23111784.366 9  90695605.88009  23111783.657 8 120349122.29808  23111784.030 8  97793521.30908
C26  21849947.892 8 114822250.98108  21849954.946 9  85743916.35909  21849954.269 8 113778445.68808  21849954.666 8  92454308.33008
C27  25000988.809 8 131381081.92508  25000995.927 9  98109277.87509  25000995.201 8 130186742.68808  25000995.582 8 105787393.70908
C32  23268464.112 8 122276605.05108  23268471.193 9  91310478.71509  23268470.419 8 121165030.63108  23268470.826 8  98456514.47508
C33  22249047.343 8 116919533.01708  22249054.442 9  87310068.52809  22249053.824 8 115856661.56708  22249054.204 8  94143028.96808
C34  25273790.678 8 132814667.43208  25273797.810 9  99179811.01409  25273797.162 8 131607293.72708  25273797.486 8 106941707.78808
> 2022 12 01 00 58 30.0000000  0 16
C01                                                                  37971616.863 8 197728173.25308  37971617.230 8 160670338.59508
C02                                                                  38534876.593 8 200661214.30808  38534876.956 8 163053674.71208
C03                                                                  37639762.334 8 196000119.44708  37639762.675 8 159266153.32908
C04                                                                  38970853.050 8 202931459.16508  38970853.408 8 164898432.80908
C05                                                                  39896604.586 8 207752089.98408  39896604.890 8 168815591.21608
C06  39564495.888 8 207912831.34308  39564503.041 9 155259607.99109  39564502.357 8 206022744.98808  39564502.721 8 167410358.37708
C07  35971930.777 8 189033772.01208  35971937.901 9 141161610.63709  35971937.201 8 187315316.21208  35971937.525 8 152209039.29608
C09  36907607.288 8 193950786.39808  36907614.443 9 144833406.34709  36907613.782 8 192187629.67208  36907614.111 8 156168193.09108
C10  36126034.196 8 189843593.19208  36126041.337 9 141766345.73309  36126040.675 8 188117773.57708  36126041.005 8 152861102.63708
C18  25572840.553 8 134386184.91608  25572847.668 9 100353347.79609  25572846.997 8 133164524.68208  25572847.334 8 108207085.50108
C25  23101040.860 8 121396790.06508  23101047.968 9  90653474.01809  23101047.305 8 120293215.15308  23101047.651 8  97748092.17308
C26  21852968.676 8 114838125.31808  21852975.748 9  85755770.56709  21852975.150 8 113794175.71308  21852975.476 8  92467090.26508
C27  25014470.769 8 131451929.88708  25014477.874 9  98162183.81609  25014477.175 8 130256946.57308  25014477.532 8 105844440.11608
C32  23251675.408 8 122188379.77108  23251682.509 9  91244596.19909  23251681.748 8 121077607.39808  23251682.109 8  98385475.93708
C33  22249091.632 8 116919765.47908  22249098.720 9  87310242.11709  22249098.093 8 115856891.91308  22249098.424 8  94143216.14608
C34  25289083.934 8 132895034.03908  25289091.064 9  99239825.03909  25289090.424 8 131686929.73508  25289090.763 8 107006418.56708
> 2022 12 01 00 59  0.0000000  0 16
C01                                                                  37971523.612 8 197727687.27108  37971523.907 8 160669943.69708
C02                                                                  38534858.085 8 200661118.35508  38534858.542 8 163053596.74308
C03                                                                  37639428.577 8 195998381.60408  37639428.913 8 159264741.19308
C04                                                                  38970805.016 8 202931209.14908  38970805.387 8 164898229.65508
C05                                                                  39896600.718 8 207752070.38808  39896601.089 8 168815575.29508
C06  39575079.595 8 207968448.72808  39575086.661 9 155301140.45409  39575085.981 8 206077856.76108  39575086.332 8 167455141.21108
C07  35972555.430 8 189037054.55008  35972562.521 9 141164061.88209  35972561.838 8 187318568.90908  35972562.147 8 152211682.38008
C09  36905265.618 8 193938480.27408  36905272.631 9 144824216.70809  36905271.962 8 192175435.41608  36905272.292 8 156158284.25908
C10  36129510.590 8 189861861.50008  36129517.685 9 141779987.65709  36129516.990 8 188135875.81108  36129517.357 8 152875812.18908
C18  25580763.716 8 134427821.68408  25580770.863 9 100384440.18909  25580770.149 8 133205782.93408  25580770.515 8 108240611.21308
C25  23090328.751 8 121340497.51408  23090335.862 9  90611437.37009  23090335.103 8 120237434.35008  23090335.534 8  97702765.70108
C26  21856034.534 8 114854236.62408  21856041.660 9  85767801.74409  21856041.078 8 113810140.55208  21856041.329 8  92480063.01308
C27  25027975.478 8 131522897.84508  25027982.609 9  98215179.37309  25027981.998 8 130327269.37408  25027982.257 8 105901583.15308
C32  23234940.165 8 122100435.86208  23234947.339 9  91178923.80309  23234946.683 8 120990462.97808  23234946.957 8  98314663.96208
C33  22249237.430 8 116920531.90708  22249244.605 9  87310814.45209  22249243.931 8 115857651.37608  22249244.266 8  94143833.27508
C34  25304432.911 8 132975693.41008  25304440.013 9  99300057.68609  25304439.416 8 131766855.83808  25304439.714 8 107071365.07808
> 2022 12 01 00 59 30.0000000  0 16
C01                                                                  37971430.253 8 197727201.07208  37971430.500 8 160669548.61408
C02                                                                  38534839.457 8 200661021.33408  38534839.895 8 163053517.90208
C03                                                                  37639094.144 8 195996640.13508  37639094.498 8 159263326.10208
C04                                                                  38970757.062 8 202930959.20408  38970757.380 8 164898026.55408
C05                                                                  39896597.029 8 207752050.63808  39896597.226 8 168815559.25108
C06  39585665.807 8 208024079.72708  39585672.895 9 155342683.08209  39585672.226 8 206132982.02308  39585672.574 8 167499934.99908
C07  35973175.740 8 189040314.39808  35973182.866 9 141166496.17809  35973182.181 8 187321799.11908  35973182.483 8 152214307.19108
C09  36902938.019 8 193926249.15608  36902945.134 9 144815083.07909  36902944.447 8 192163315.48908  36902944.814 8 156148435.82508
C10  36133012.955 8 189880266.17508  36133020.006 9 141793731.40409  36133019.255 8 188154113.17008  36133019.635 8 152890631.53008
C18  25588755.374 8 134469817.92008  25588762.479 9 100415801.01209  25588761.824 8 133247397.38808  25588762.153 8 108274426.36208
C25  23079641.069 8 121284333.22708  23079648.159 9  90569496.50809  23079647.554 8 120181780.64308  23079647.815 8  97657542.50808
C26  21859145.629 8 114870585.28808  21859152.696 9  85780010.15809  21859152.093 8 113826340.59408  21859152.378 8  92493226.86808
C27  25041503.064 8 131593985.67008  25041510.181 9  98268264.43809  25041509.533 8 130397710.94508  25041509.829 8 105958822.69708
C32  23218259.010 8 122012775.52908  23218266.116 9  91113463.16409  23218265.367 8 120903599.55308  23218265.755 8  98244080.31508
C33  22249484.883 8 116921832.09408  22249491.998 9  87311785.37309  22249491.323 8 115858939.74508  22249491.693 8  94144880.17808
C34  25319837.148 8 133056643.29608  25319844.278 9  99360507.27609  25319843.610 8 131847069.81808  25319843.955 8 107136545.50508
> 2022 12 01 01 00  0.0000000  0 16
C01                                                                  37971336.756 8 197726714.69208  37971337.123 8 160669153.39908
C02                                                                  38534820.627 8 200660923.28008  38534821.003 8 163053438.22308
C03                                                                  37638759.023 8 195994895.07408  37638759.381 8 159261908.09908
C04                                                                  38970709.023 8 202930709.37008  38970709.386 8 164897823.53208
C05                                                                  39896593.250 8 207752030.79608  39896593.515 8 168815543.12708
C06  39596254.517 8 208079723.82008  39596261.638 9 155384235.48609  39596260.916 8 206188120.26108  39596261.301 8 167544739.33408
C07  35973791.792 8 189043551.50008  35973798.864 9 141168913.49809  35973798.201 8 187325006.79908  35973798.477 8 152216913.68908
C09  36900624.753 8 193914092.77608  36900631.849 9 144806005.26109  36900631.228 8 192151269.61908  36900631.527 8 156138647.56808
C10  36136541.086 8 189898807.40708  36136548.233 9 141807577.12409  36136547.660 8 188172485.84008  36136547.921 8 152905560.82908
C18  25596815.052 8 134512171.77508  25596822.166 9 100447428.88709  25596821.445 8 133289366.20508  25596821.816 8 108308529.46008
C25  23068977.913 8 121228298.08008  23068985.021 9  90527652.07909  23068984.335 8 120126254.91208  23068984.720 8  97612423.29908
C26  21862301.916 8 114887171.79108  21862308.998 9  85792396.17709  21862308.356 8 113842776.30708  21862308.695 8  92506582.23308
C27  25055053.403 8 131665193.29808  25055060.541 9  98321438.96109  25055059.859 8 130468271.22808  25055060.210 8 106016158.70508
C32  23201632.185 8 121925401.06308  23201639.311 9  91048215.99609  23201638.546 8 120817019.40508  23201638.980 8  98173726.84108
C33  22249833.862 8 116923665.89308  22249840.926 9  87313154.76209  22249840.342 8 115860756.87108  22249840.649 8  94146356.74108
C34  25335296.296 8 133137881.54808  25335303.389 9  99421172.20109  25335302.707 8 131927569.53708  25335303.109 8 107201958.12008
> 2022 12 01 01 00 30.0000000  0 16
C01                                                                  37971243.366 8 197726228.14408  37971243.711 8 160668758.04108
C02                                                                  38534801.640 8 200660824.15308  38534801.971 8 163053357.68208
C03                                                                  37638423.191 8 195993146.53008  37638423.594 8 159260487.26608
C04                                                                  38970661.034 8 202930459.56308  38970661.432 8 164897620.55208
C05                                                                  39896589.083 8 207752011.09508  39896589.535 8 168815526.30608
C06  39606845.627 8 208135380.42308  39606852.757 9 155425797.24009  39606852.133 8 206243271.05808  39606852.462 8 167589553.87808
C07  35974403.419 8 189046765.73408  35974410.520 9 141171313.73709  35974409.910 8 187328191.44308  35974410.253 8 152219502.29108
C09  36898325.594 8 193902010.55808  36898332.692 9 144796982.83009  36898332.040 8 192139297.18808  36898332.354 8 156128918.99308
C10  36140095.460 8 189917485.33008  36140102.562 9 141821524.93109  36140101.894 8 188190993.96108  36140102.214 8 152920600.19908
C18  25604942.396 8 134554881.34208  25604949.502 9 100479322.40109  25604948.803 8 133331686.97108  25604949.087 8 108342919.55408
C25  23058339.537 8 121172392.87008  23058346.619 9  90485904.68409  23058345.979 8 120070858.10508  23058346.315 8  97567408.86208
C26  21865503.563 8 114903996.35308  21865510.598 9  85804959.98009  21865509.989 8 113859447.91308  21865510.287 8  92520129.27608
C27  25068626.586 8 131736520.60008  25068633.642 9  98374702.85909  25068632.964 8 130538949.83108  25068633.288 8 106073590.86308
C32  23185060.249 8 121838314.72508  23185067.361 9  90983183.99009  23185066.717 8 120730724.19408  23185067.038 8  98103605.73108
C33  22250284.239 8 116926033.07508  22250291.425 9  87314922.46609  22250290.715 8 115863102.37608  22250291.092 8  94148262.65708
C34  25350809.882 8 133219406.02908  25350817.021 9  99482050.87409  25350816.286 8 132008352.49808  25350816.645 8 107267600.89908
> 2022 12 01 01 01  0.0000000  0 16
C01                                                                  37971149.887 8 197725741.40308  37971150.232 8 160668362.52008
C02                                                                  38534782.439 8 200660724.03908  38534782.752 8 163053276.33108
C03                                                                  37638086.750 8 195991394.30808  37638087.095 8 159259063.43808
C04                                                                  38970613.174 8 202930209.92808  38970613.514 8 164897417.70408
C05                                                                  39896585.353 8 207751991.04308  39896585.662 8 168815510.00808
C06  39617439.006 8 208191049.01508  39617446.134 9 155467367.94209  39617445.460 8 206298433.57308  39617445.801 8 167634377.93508
C07  35975010.678 8 189049957.10708  35975017.804 9 141173696.90309  35975017.255 8 187331353.78508  35975017.564 8 152222071.94908
C09  36896040.520 8 193890002.71008  36896047.673 9 144788015.92309  36896046.952 8 192127398.50408  36896047.320 8 156119250.33608
C10  36143675.770 8 189936300.10808  36143682.907 9 141835574.92209  36143682.237 8 188209637.70008  36143682.545 8 152935749.75908
C18  25613137.066 8 134597944.69708  25613144.175 9 100511480.09809  25613143.378 8 133374358.87708  25613143.770 8 108377593.96708
C25  23047726.041 8 121116618.52108  23047733.135 9  90444255.00809  23047732.493 8 120015590.77108  23047732.838 8  97522499.62008
C26  21868750.626 8 114921059.82508  21868757.682 9  85817702.18109  21868757.071 8 113876356.26608  21868757.363 8  92533868.69508
C27  25082222.445 8 131807967.52308  25082229.569 9  98428056.07809  25082228.852 8 130609747.24908  25082229.193 8 106131119.56208
C32  23168543.503 8 121751518.72708  23168550.614 9  90918368.79709  23168550.010 8 120644717.24208  23168550.313 8  98033718.03808
C33  22250836.240 8 116928933.45308  22250843.314 9  87317088.33209  22250842.670 8 115865976.39408  22250843.006 8  94150598.02608
C34  25366377.494 8 133301214.41408  25366384.594 9  99543141.54809  25366383.905 8 132089417.17308  25366384.255 8 107333472.58008
> 2022 12 01 01 01 30.0000000  0 16
C01                                                                  37971056.367 8 197725254.49908  37971056.735 8 160667966.86808
C02                                                                  38534763.072 8 200660622.89908  38534763.319 8 163053194.14708
C03                                                                  37637749.581 8 195989638.53008  37637749.926 8 159257636.72408
C04                                                                  38970565.220 8 202929960.41008  38970565.596 8 164897214.94708
C05                                                                  39896581.342 8 207751970.88608  39896581.844 8 168815493.62708
C06  39628034.559 8 208246729.03008  39628041.658 9 155508947.17109  39628041.059 8 206353607.40108  39628041.376 8 167679211.19308
C07  35975613.642 8 189053125.49808  35975620.751 9 141176062.91309  35975620.079 8 187334493.35908  35975620.487 8 152224623.11108
C09  36893769.605 8 193878068.66508  36893776.686 9 144779104.14109  36893776.011 8 192115572.95708  36893776.364 8 156109641.11008
C10  36147282.206 8 189955251.89108  36147289.267 9 141849727.23009  36147288.587 8 188228417.19908  36147288.954 8 152951009.64208
C18  25621398.674 8 134641359.93908  25621405.844 9 100543900.57009  25621405.094 8 133417379.46208  25621405.429 8 108412551.71808
C25  23037137.572 8 121060975.84908  23037144.639 9  90402703.66309  23037144.026 8 119960453.91608  23037144.369 8  97477696.40508
C26  21872043.125 8 114938362.46108  21872050.266 9  85830622.98409  21872049.625 8 113893501.60608  21872049.956 8  92547800.69008
C27  25095841.068 8 131879533.95708  25095848.213 9  98481498.54709  25095847.474 8 130680663.08608  25095847.819 8 106188744.48908
C32  23152082.487 8 121665015.33708  23152089.536 9  90853772.11309  23152088.966 8 120559000.23208  23152089.277 8  97964065.94808
C33  22251489.555 8 116932366.78408  22251496.673 9  87319652.18209  22251496.033 8 115869378.51708  22251496.329 8  94153362.52908
C34  25381998.763 8 133383304.58108  25382005.852 9  99604442.64709  25382005.147 8 132170761.06708  25382005.488 8 107399571.15808
> 2022 12 01 01 02  0.0000000  0 16
C01                                                                  37970962.906 8 197724767.40108  37970963.175 8 160667571.06808
C02                                                                  38534743.429 8 200660520.69808  38534743.715 8 163053111.10008
C03                                                                  37637411.763 8 195987879.17108  37637412.046 8 159256207.10108
C04                                                                  38970517.365 8 202929710.97308  38970517.665 8 164897012.25908
C05                                                                  39896577.591 8 207751950.59308  39896577.859 8 168815477.13608
C06  39638632.136 8 208302419.86908  39638639.289 9 155550534.49009  39638638.622 8 206408791.95808  39638638.996 8 167724053.17008
C07  35976212.155 8 189056270.80308  35976219.265 9 141178411.67809  35976218.681 8 187337610.05008  35976219.018 8 152227155.68508
C09  36891512.571 8 193866208.07708  36891519.699 9 144770247.20909  36891518.982 8 192103820.20008  36891519.376 8 156100091.03108
C10  36150914.664 8 189974340.78808  36150921.776 9 141863981.92909  36150921.136 8 188247332.56608  36150921.462 8 152966379.93108
C18  25629726.906 8 134685125.08808  25629734.063 9 100576582.34209  25629733.303 8 133460746.78208  25629733.683 8 108447791.21808
C25  23026574.272 8 121005465.67508  23026581.401 9  90361251.25809  23026580.842 8 119905448.34408  23026581.128 8  97432999.88608
C26  21875381.285 8 114955904.66008  21875388.410 9  85843722.67609  21875387.794 8 113910884.33108  21875388.125 8  92561925.58108
C27  25109482.421 8 131951219.75608  25109489.572 9  98535030.15209  25109488.793 8 130751697.20508  25109489.170 8 106246465.53008
C32  23135677.470 8 121578806.75008  23135684.600 9  90789395.57009  23135683.978 8 120473575.35008  23135684.326 8  97894651.23308
C33  22252244.298 8 116936332.77108  22252251.380 9  87322613.79809  22252250.686 8 115873308.45208  22252251.051 8  94156555.92808
C34  25397673.144 8 133465674.29508  25397680.295 9  99665952.50309  25397679.517 8 132252381.96308  25397679.923 8 107465894.82708
> 2022 12 01 01 02 30.0000000  0 16
C01                                                                  37970869.190 8 197724280.14508  37970869.606 8 160667175.12308
C02                                                                  38534723.642 8 200660417.47808  38534723.883 8 163053027.22508
C03                                                                  37637073.150 8 195986116.26708  37637073.499 8 159254774.60008
C04                                                                  38970469.420 8 202929461.65608  38970469.765 8 164896809.66508
C05                                                                  39896573.589 8 207751930.19208  39896573.991 8 168815460.56108
C06  39649231.704 8 208358121.01008  39649238.858 9 155592129.49909  39649238.218 8 206463986.72508  39649238.557 8 167768903.43508
C07  35976806.248 8 189059392.97608  35976813.387 9 141180743.17309  35976812.786 8 187340703.83008  35976813.120 8 152229669.62908
C09  36889269.485 8 193854420.67208  36889276.636 9 144761444.92509  36889275.918 8 192092139.95708  36889276.297 8 156090599.87408
C10  36154573.310 8 189993566.98108  36154580.415 9 141878339.15009  36154579.751 8 188266383.97908  36154580.066 8 152981860.76308
C18  25638121.407 8 134729238.25208  25638128.488 9 100609523.98809  25638127.782 8 133504458.94708  25638128.109 8 108483310.93008
C25  23016036.447 8 120950088.88808  23016043.594 9  90319898.46409  23016042.927 8 119850574.95908  23016043.265 8  97388410.76108
C26  21878765.158 8 114973686.89508  21878772.278 9  85857001.61909  21878771.659 8 113928504.91208  21878771.952 8  92576243.74708
C27  25123146.502 8 132023024.84908  25123153.569 9  98588650.83709  25123152.900 8 130822849.53008  25123153.218 8 106304282.62108
C32  23119329.072 8 121492895.22208  23119336.181 9  90725240.85509  23119335.601 8 120388444.82808  23119335.900 8  97825475.70308
C33  22253100.318 8 116940831.16908  22253107.357 9  87325972.99009  22253106.783 8 115877765.95708  22253107.068 8  94160178.01408
C34  25413400.410 8 133548321.39008  25413407.509 9  99727669.48909  25413406.768 8 132334277.72708  25413407.117 8 107532441.84108
> 2022 12 01 01 03  0.0000000  0 16
C01                                                                  37970775.639 8 197723792.70608  37970775.997 8 160666779.04408
C02                                                                  38534703.658 8 200660313.21308  38534703.855 8 163052942.48808
C03                                                                  37636733.906 8 195984349.80508  37636734.286 8 159253339.20308
C04                                                                  38970421.565 8 202929212.42308  38970421.914 8 164896607.14408
C05                                                                  39896569.627 8 207751909.65808  39896570.030 8 168815443.88108
C06  39659833.167 8 208413831.86508  39659840.282 9 155633731.75609  39659839.711 8 206519191.11508  39659840.005 8 167813761.52408
C07  35977396.029 8 189062491.92308  35977403.104 9 141183057.31609  35977402.539 8 187343774.58608  35977402.850 8 152232164.87108
C09  36887040.319 8 193842706.10008  36887047.428 9 144752697.02809  36887046.814 8 192080531.88408  36887047.075 8 156081167.36508
C10  36158258.101 8 190012930.57208  36158265.195 9 141892798.97409  36158264.502 8 188285571.54108  36158264.866 8 152997452.23008
C18  25646581.699 8 134773697.43208  25646588.832 9 100642724.02409  25646588.096 8 133548513.97908  25646588.433 8 108519109.25508
C25  23005524.183 8 120894846.32808  23005531.264 9  90278645.90009  23005530.576 8 119795834.58408  23005530.954 8  97343929.71708
C26  21882194.836 8 114991709.57808  21882201.875 9  85870460.11209  21882201.228 8 113946363.75208  21882201.599 8  92590755.51508
C27  25136833.229 8 132094949.09608  25136840.332 9  98642360.49909  25136839.661 8 130894119.92508  25136839.954 8 106362195.65508
C32  23103037.652 8 121407282.94408  23103044.708 9  90661309.60709  23103044.103 8 120303610.82908  23103044.433 8  97756541.13208
C33  22254057.509 8 116945861.64108  22254064.664 9  87329729.51109  22254064.014 8 115882750.70408  22254064.321 8  94164228.52808
C34  25429180.004 8 133631243.63808  25429187.111 9  99789591.94309  25429186.373 8 132416446.13308  25429186.705 8 107599210.40108
> 2022 12 01 01 03 30.0000000  0 16
C01                                                                  37970682.003 8 197723305.11608  37970682.357 8 160666382.84108
C02                                                                  38534683.388 8 200660207.90508  38534683.630 8 163052856.92908
C03                                                                  37636394.036 8 195982579.82308  37636394.380 8 159251900.95308
C04                                                                  38970373.746 8 202928963.32408  38970374.117 8 164896404.73308
C05                                                                  39896565.763 8 207751889.03508  39896566.041 8 168815427.12308
C06  39670436.367 8 208469551.90208  39670443.434 9 155675340.87609  39670442.809 8 206574404.59908  39670443.143 8 167858627.00508
C07  35977981.257 8 189065567.59508  35977988.392 9 141185354.08809  35977987.754 8 187346822.28508  35977988.111 8 152234641.38008
C09  36884824.882 8 193831064.07408  36884832.020 9 144744003.31209  36884831.322 8 192068995.70108  36884831.692 8 156071793.27708
C10  36161969.032 8 190032431.74308  36161976.124 9 141907361.53909  36161975.506 8 188304895.42908  36161975.784 8 153013154.47308
C18                                                                                                  25655113.352 3
C25  22995037.586 8 120839738.89708  22995044.686 9  90237494.25009  22995043.950 8 119741228.10808  22995044.363 8  97299557.48308
C26  21885670.266 8 115009973.17208  21885677.342 9  85884098.51309  21885676.680 8 113964461.31508  21885677.024 8  92605461.26608
C27  25150542.616 8 132166992.41208  25150549.732 9  98696159.08209  25150549.074 8 130965508.31208  25150549.347 8 106420204.57008
C32  23086803.515 8 121321972.16108  23086810.612 9  90597603.50309  23086809.935 8 120219075.58508  23086810.328 8  97687849.32408
C33  22255116.016 8 116951423.90608  22255123.118 9  87333883.15309  22255122.532 8 115888262.40508  22255122.802 8  94168707.24208
C34  25445011.474 8 133714438.85408  25445018.626 9  99851718.24609  25445017.884 8 132498885.03708  25445018.221 8 107666198.76308
> 2022 12 01 01 04  0.0000000  0 15
C01                                                                  37970588.323 8 197722817.35108  37970588.708 8 160665986.49308
C02                                                                  38534662.971 8 200660101.55808  38534663.212 8 163052770.51608
C03                                                                  37636053.459 8 195980806.30408  37636053.781 8 159250459.82108
C04                                                                  38970326.020 8 202928714.32108  38970326.298 8 164896202.39708
C05                                                                  39896561.716 8 207751868.28708  39896562.137 8 168815410.25908
C06  39681041.150 8 208525280.52808  39681048.256 9 155716956.40709  39681047.629 8 206629626.60008  39681047.944 8 167903499.40108
C07  35978562.107 8 189068619.90008  35978569.232 9 141187633.40809  35978568.626 8 187349846.83108  35978568.953 8 152237099.06808
C09  36882623.271 8 193819494.26008  36882630.362 9 144735363.51409  36882629.638 8 192057531.06808  36882630.021 8 156062477.32108
C10  36165706.188 8 190052070.59308  36165713.304 9 141922026.90909  36165712.575 8 188324355.74908  36165712.949 8 153028967.57408
C25  22984576.815 8 120784767.43908  22984583.975 9  90196444.13409  22984583.332 8 119686756.36408  22984583.621 8  97255294.72708
C26  21889191.608 8 115028478.08408  21889198.707 9  85897917.11609  21889198.039 8 113982798.00308  21889198.383 8  92620361.33008
C27  25164274.676 8 132239154.65608  25164281.766 9  98750046.47309  25164281.051 8 131037014.54108  25164281.358 8 106478309.23808
C32  23070627.180 8 121236965.04208  23070634.285 9  90534124.16609  23070633.689 8 120134841.24708  23070634.008 8  97619402.03208
C33  22256275.599 8 116957517.59208  22256282.699 9  87338433.63009  22256282.033 8 115894300.69508  22256282.403 8  94173613.84708
C34  25460894.473 8 133797904.81608  25460901.681 9  99914046.72209  25460900.886 8 132581592.21408  25460901.274 8 107733405.12008
> 2022 12 01 01 04 30.0000000  0 15
C01                                                                  37970494.620 8 197722329.44608  37970494.974 8 160665590.02308
C02                                                                  38534642.249 8 200659994.20608  38534642.554 8 163052683.27108
C03                                                                  37635712.180 8 195979029.27608  37635712.516 8 159249015.83408
C04                                                                  38970278.022 8 202928465.44308  38970278.478 8 164896000.16208
C05                                                                  39896557.772 8 207751847.42808  39896558.041 8 168815393.31608
C06  39691647.452 8 208581017.20908  39691654.575 9 155758577.95609  39691653.888 8 206684856.58608  39691654.280 8 167948378.28808
C07  35979138.471 8 189071648.79808  35979145.611 9 141189895.24609  35979144.951 8 187352848.18108  35979145.314 8 152239537.91008
C09  36880435.270 8 193807996.35908  36880442.376 9 144726777.41609  36880441.736 8 192046137.70208  36880442.015 8 156053219.27208
C10  36169469.504 8 190071847.28008  36169476.663 9 141936795.21809  36169475.951 8 188343952.65308  36169476.298 8 153044891.65908
C11                                  26300474.512 9 103208713.22119  26300473.648 8 136953469.27918  26300474.288 8 111285920.72118
C25  22974142.151 8 120729932.85908  22974149.289 9  90155496.23209  22974148.546 8 119632420.26408  22974148.939 8  97211142.19608
C26  21892758.952 8 115047224.78008  21892766.060 9  85911916.27009  21892765.450 8 114001374.27808  21892765.748 8  92635456.07108
C27  25178029.271 8 132311435.73808  25178036.358 9  98804022.60109  25178035.668 8 131108638.52208  25178036.003 8 106536509.59008
C32  23054509.105 8 121152263.81608  23054516.200 9  90470873.24909  23054515.488 8 120050910.02508  23054515.886 8  97551201.03308
C33  22257536.190 8 116964142.35708  22257543.344 9  87343380.69809  22257542.668 8 115900865.23908  22257543.019 8  94178948.07408
> 2022 12 01 01 05  0.0000000  0 15
C01                                                                  37970400.935 8 197721841.36508  37970401.262 8 160665193.41908
C02                                                                  38534621.385 8 200659885.78808  38534621.761 8 163052595.17808
C03                                                                  37635370.240 8 195977248.72408  37635370.589 8 159247568.99308
C04                                                                  38970230.354 8 202928216.66508  38970230.694 8 164895798.01408
C05                                                                  39896553.815 8 207751826.45008  39896554.088 8 168815376.26708
C06  39702255.230 8 208636761.35808  39702262.337 9 155800205.07909  39702261.605 8 206740093.96108  39702262.024 8 167993263.18008
C07  35979710.403 8 189074654.19008  35979717.517 9 141192139.53209  35979716.872 8 187355826.23908  35979717.212 8 152241957.82908
C09  36878260.921 8 193796570.02008  36878268.031 9 144718244.76409  36878267.297 8 192034815.24108  36878267.696 8 156044018.85408
C10  36173259.165 8 190091761.90808  36173266.313 9 141951666.53009  36173265.562 8 188363686.24208  36173265.952 8 153060926.82408
C11  26315866.033 8 138290816.16518  26315873.111 9 103269142.37509  26315872.660 8 137033656.16208  26315872.958 8 111351079.13208
C25  22963733.733 8 120675236.01808  22963740.809 9  90114651.18909  22963740.173 8 119578220.64108  22963740.488 8  97167100.56408
C26  21896372.475 8 115066213.65608  21896379.544 9  85926096.27409  21896378.914 8 114020190.52708  21896379.222 8  92650745.81708
C27  25191806.493 8 132383835.49608  25191813.585 9  98858087.35709  25191812.908 8 131180380.11108  25191813.209 8 106594805.50708
C32  23038449.602 8 121067870.64708  23038456.712 9  90407852.37309  23038456.112 8 119967284.05408  23038456.411 8  97483248.08608
C33  22258897.844 8 116971297.80108  22258904.990 9  87348724.04709  22258904.354 8 115907955.63808  22258904.665 8  94184709.60308
> 2022 12 01 01 05 30.0000000  0 15
C01                                                                  37970307.165 8 197721353.12608  37970307.496 8 160664796.68208
C02                                                                  38534600.422 8 200659776.33008  38534600.753 8 163052506.23308
C03                                                                  37635027.597 8 195975464.66408  37635027.982 8 159246119.29908
C04                                                                  38970182.633 8 202927968.00008  38970182.955 8 164895595.95108
C05                                                                  39896549.625 8 207751805.35108  39896550.001 8 168815359.12308
C06  39712864.290 8 208692512.41408  39712871.438 9 155841837.36009  39712870.776 8 206795338.19308  39712871.129 8 168038153.64308
C07  35980277.814 8 189077636.02708  35980284.918 9 141194366.22709  35980284.325 8 187358780.95508  35980284.661 8 152244358.77308
C09  36876100.111 8 193785214.94308  36876107.244 9 144709765.32209  36876106.574 8 192023563.39908  36876106.879 8 156034875.80308
C10  36177075.072 8 190111814.61908  36177082.187 9 141966640.95409  36177081.524 8 188383556.65808  36177081.867 8 153077073.16208
C11  26331262.121 8 138371723.08308  26331269.184 9 103329559.87709  26331268.666 8 137113827.57408  26331269.063 8 111416224.97808
C25  22953351.641 8 120620677.81308  22953358.743 9  90073909.67209  22953358.032 8 119524158.40008  22953358.391 8  97123170.56108
C26  21900032.043 8 115085445.15708  21900039.191 9  85940457.45909  21900038.495 8 114039247.19208  21900038.857 8  92666230.91808
C27  25205606.274 8 132456353.82408  25205613.365 9  98912240.65409  25205612.684 8 131252239.18608  25205613.007 8 106653196.89108
C32  23022449.140 8 120983787.72208  23022456.237 9  90345063.17509  23022455.600 8 119883965.51008  23022455.962 8  97415544.93808
C33  22260360.436 8 116978983.52408  22260367.549 9  87354463.38509  22260366.860 8 115915571.49408  22260367.238 8  94190898.10908
> 2022 12 01 01 06  0.0000000  0 16
C01                                                                  37970213.297 8 197720864.75108  37970213.691 8 160664399.84208
C02                                                                  38534579.128 8 200659665.87308  38534579.584 8 163052416.47808
C03                                                                  37634684.346 8 195973677.13108  37634684.705 8 159244666.77908
C04                                                                  38970134.876 8 202927719.47208  38970135.234 8 164895393.99608
C05                                                                  39896545.574 8 207751784.15208  39896545.901 8 168815341.89408
C06  39723474.615 8 208748269.84208  39723481.708 9 155883474.40109  39723481.060 8 206850588.73408  39723481.415 8 168083049.23408
C07  35980840.748 8 189080594.26608  35980847.858 9 141196575.30109  35980847.200 8 187361712.29408  35980847.566 8 152246740.72608
C08  40008473.956 8 210245949.35218  40008481.032 9 157001872.93419                                  40008480.687 8 169288974.54618
C09  36873952.775 8 193773930.82708  36873959.921 9 144701338.86909  36873959.260 8 192012381.86908  36873959.591 8 156025789.89708
C10  36180917.254 8 190132005.56008  36180924.386 9 141981718.60409  36180923.734 8 188403564.04808  36180924.060 8 153093330.80608
C11  26346654.728 8 138452612.03008  26346661.859 9 103389963.96209  26346661.337 8 137193981.18608  26346661.706 8 111481356.34808
C25  22942996.092 8 120566259.16508  22943003.197 9  90033272.37009  22943002.554 8 119470234.44208  22943002.857 8  97079352.93508
C26  21903737.957 8 115104919.73408  21903745.060 9  85955000.16509  21903744.437 8 114058544.73408  21903744.740 8  92681911.75308
C27  25219428.571 8 132528990.61308  25219435.690 9  98966482.41209  25219435.032 8 131324215.64808  25219435.310 8 106711683.65808
C32  23006508.133 8 120900017.24508  23006515.247 9  90282507.29709  23006514.637 8 119800956.57208  23006514.949 8  97348093.37708
C33  22261923.828 8 116987199.13708  22261930.925 9  87360598.41909  22261930.238 8 115923712.41808  22261930.589 8  94197513.27808
> 2022 12 01 01 06 30.0000000  0 16
C01                                                                  37970119.513 8 197720376.19108  37970119.885 8 160664002.84608
C02                                                                  38534557.776 8 200659554.33508  38534558.187 8 163052325.84608
C03                                                                  37634340.371 8 195971886.07008  37634340.738 8 159243211.39908
C04                                                                  38970087.159 8 202927471.02108  38970087.531 8 164895192.10908
C05                                                                  39896541.357 8 207751762.80608  39896541.858 8 168815324.54808
C06  39734085.955 8 208804033.01808  39734093.068 9 155925115.73709  39734092.466 8 206905844.97308  39734092.783 8 168127949.45508
C07  35981399.117 8 189083528.79208  35981406.299 9 141198766.66909  35981405.661 8 187364620.12908  35981406.003 8 152249103.58508
C08  39997381.242 8 210187656.77518  39997388.295 9 156958342.75919                                  39997388.000 8 169242037.66318
C09  36871818.956 8 193762717.29108  36871826.103 9 144692965.13009  36871825.406 8 192001270.27608  36871825.734 8 156016760.81708
C10  36184785.809 8 190152334.79408  36184792.920 9 141996899.53209  36184792.188 8 188423708.47708  36184792.594 8 153109699.80308
C11  26362043.463 8 138533480.55808  26362050.606 9 103450352.79809  26362050.158 8 137274114.56608  26362050.461 8 111546471.28508
C25  22932667.292 8 120511980.91108  22932674.399 9  89992739.90709  22932673.755 8 119416449.61008  22932674.071 8  97035648.35008
C26  21907490.163 8 115124637.76108  21907497.272 9  85969724.66609  21907496.602 8 114078083.50508  21907496.946 8  92697788.60408
C27  25233273.460 8 132601745.67708  25233280.530 9  99020812.49109  25233279.788 8 131396309.30508  25233280.162 8 106770265.65908
C32  22990627.036 8 120816561.31608  22990634.111 9  90220186.31509  22990633.508 8 119718259.32708  22990633.837 8  97280895.09108
C33  22263587.946 8 116995944.13108  22263595.042 9  87367128.77409  22263594.357 8 115932377.91608  22263594.724 8  94204554.70608
> 2022 12 01 01 07  0.0000000  0 15
C01                                                                  37970025.694 8 197719887.50408  37970026.034 8 160663605.74808
C02                                                                  38534536.196 8 200659441.78808  38534536.576 8 163052234.39108
C03                                                                  37633995.757 8 195970091.55608  37633996.137 8 159241753.20908
C04                                                                  38970039.429 8 202927222.70408  38970039.810 8 164894990.33608
C05                                                                  39896537.444 8 207751741.36708  39896537.700 8 168815307.12808
C06  39744698.344 8 208859801.43708  39744705.461 9 155966760.98309  39744704.816 8 206961106.40308  39744705.181 8 168172853.89208
C07  35981953.036 8 189086439.60108  35981960.185 9 141200940.32409  35981959.605 8 187367504.47108  35981959.915 8 152251447.34708
C09  36869698.443 8 193751574.07508  36869705.588 9 144684643.89309  36869704.851 8 191990228.36508  36869705.260 8 156007788.35908
C10  36188680.670 8 190172802.50708  36188687.799 9 142012183.85709  36188687.110 8 188443990.11808  36188687.484 8 153126180.30108
C11  26377428.011 8 138614326.34608  26377435.085 9 103510724.65009  26377434.605 8 137354225.40708  26377434.906 8 111611567.90708
C25  22922365.380 8 120457844.01708  22922372.488 9  89952313.00509  22922371.807 8 119362804.85108  22922372.161 8  96992057.59108
C26  21911288.767 8 115144599.71508  21911295.930 9  85984631.32209  21911295.228 8 114097863.99408  21911295.613 8  92713861.87208
C27  25247140.772 8 132674618.93208  25247147.841 9  99075230.82709  25247147.184 8 131468520.07908  25247147.458 8 106828942.83308
C32  22974806.197 8 120733422.16708  22974813.277 9  90158101.88209  22974812.505 8 119635875.97608  22974812.966 8  97213951.87008
C33  22265352.675 8 117005218.10908  22265359.812 9  87374054.14609  22265359.172 8 115941567.58908  22265359.512 8  94212022.06608
> 2022 12 01 01 07 30.0000000  0 15
C01                                                                  37969931.857 8 197719398.68808  37969932.162 8 160663208.54108
C02                                                                  38534514.481 8 200659328.21808  38534514.723 8 163052142.10908
C03                                                                  37633650.534 8 195968293.58208  37633650.848 8 159240292.20908
C04                                                                  38969991.824 8 202926974.53308  38969992.178 8 164894788.68008
C05                                                                  39896533.313 8 207751719.82908  39896533.577 8 168815289.62908
C06  39755311.656 8 208915574.53208  39755318.719 9 156008409.72009  39755318.176 8 207016372.46608  39755318.423 8 168217762.09608
C07  35982502.472 8 189089326.63808  35982509.568 9 141203096.22909  35982508.957 8 187370365.25408  35982509.322 8 152253771.96408
C09  36867591.269 8 193740500.84908  36867598.424 9 144676374.92309  36867597.711 8 191979255.80408  36867598.088 8 155998872.25908
C10  36192601.914 8 190193408.80908  36192609.045 9 142027571.68209  36192608.442 8 188464409.09308  36192608.727 8 153142772.38808
C11  26392807.614 8 138695147.00208  26392814.703 9 103571077.74109  26392814.215 8 137434311.35008  26392814.574 8 111676644.29908
C25  22912090.545 8 120403849.38308  22912097.675 9  89911992.34009  22912096.993 8 119309301.06308  22912097.294 8  96948581.38008
C26  21915133.978 8 115164806.03308  21915141.031 9  85999720.44709  21915140.470 8 114117886.61108  21915140.727 8  92730131.89208
C27  25261030.524 8 132747610.24408  25261037.632 9  99129737.32909  25261036.925 8 131540847.83508  25261037.239 8 106887715.06108
C32  22959046.021 8 120650601.93508  22959053.093 9  90096255.60409  22959052.451 8 119553808.64808  22959052.798 8  97147265.44508
C33  22267218.068 8 117015020.58708  22267225.163 9  87381374.17709  22267224.541 8 115951280.95408  22267224.833 8  94219914.97208
> 2022 12 01 01 08  0.0000000  0 16
C01                                                                  37969837.908 8 197718909.71508  37969838.293 8 160662811.21508
C02                                                                  38534492.405 8 200659213.61108  38534492.701 8 163052048.98208
C03                                                                  37633304.578 8 195966492.13808  37633304.909 8 159238828.38908
C04                                                                  38969944.233 8 202926726.46608  38969944.555 8 164894587.10008
C05                                                                  39896528.975 8 207751698.16108  39896529.450 8 168815272.02908
C06  39765925.661 8 208971351.70108  39765932.803 9 156050061.50509  39765932.100 8 207071642.57308  39765932.491 8 168262673.58908
C07  35983047.311 8 189092189.81708  35983054.449 9 141205234.32009  35983053.784 8 187373202.39008  35983054.133 8 152256077.37408
C08  39964087.567 8 210012697.43618  39964094.665 9 156827691.30719  39964093.993 8 208103524.43318  39964094.362 8 169101161.31118
C09  36865497.408 8 193729497.25908  36865504.521 9 144668157.96009  36865503.824 8 191968352.25208  36865504.184 8 155990012.22508
C10  36196549.603 8 190214153.79008  36196556.692 9 142043063.06409  36196555.995 8 188484965.48308  36196556.380 8 153159476.14108
C11  26408182.021 8 138775940.14108  26408189.135 9 103631410.28109  26408188.655 8 137514370.02008  26408189.026 8 111741698.52208
C25  22901843.015 8 120349997.90208  22901850.074 9  89871778.57409  22901849.389 8 119255939.12308  22901849.701 8  96905220.43408
C26  21919025.641 8 115185257.09308  21919032.739 9  86014992.35009  21919032.123 8 114138151.75908  21919032.452 8  92746598.98008
C27  25274942.708 8 132820719.43608  25274949.861 9  99184331.86109  25274949.149 8 131613292.40708  25274949.478 8 106946582.20708
C32  22943346.978 8 120568102.73608  22943354.052 9  90034649.06409  22943353.487 8 119472059.43808  22943353.723 8  97080837.51508
C33  22269183.944 8 117025351.03108  22269190.996 9  87389088.47109  22269190.311 8 115961517.49208  22269190.673 8  94228232.99608
> 2022 12 01 01 08 30.0000000  0 16
C01                                                                  37969744.009 8 197718420.57708  37969744.322 8 160662413.75208
C02                                                                  38534470.087 8 200659097.94208  38534470.494 8 163051954.98608
C03                                                                  37632957.965 8 195964687.21608  37632958.278 8 159237361.74008
C04                                                                  38969896.547 8 202926478.51208  38969896.923 8 164894385.61208
C05                                                                  39896524.987 8 207751676.36008  39896525.242 8 168815254.30608
C06  39776540.366 8 209027132.37708  39776547.482 9 156091715.90409  39776546.851 8 207126916.14208  39776547.211 8 168307587.89308
C07  35983587.594 8 189095029.07108  35983594.717 9 141207354.54009  35983594.131 8 187376015.82608  35983594.417 8 152258363.51708
C08  39952984.839 8 209954352.40308  39952991.971 9 156784121.96409  39952991.338 8 208045709.80908  39952991.655 8 169054182.19508
C09  36863416.686 8 193718562.97008  36863423.789 9 144659992.74309  36863423.085 8 191957517.36808  36863423.437 8 155981207.99408
C10  36200523.604 8 190235037.55308  36200530.721 9 142058658.08009  36200530.042 8 188505659.39408  36200530.384 8 153176291.63808
C11  26423550.767 8 138856703.36308  26423557.897 9 103691720.47909  26423557.402 8 137594399.05208  26423557.756 8 111806728.66308
C25  22891622.785 8 120296290.48508  22891629.860 9  89831672.38109  22891629.147 8 119202719.93608  22891629.507 8  96861975.48108
C26  21922964.018 8 115205953.31708  21922971.117 9  86030447.31909  21922970.460 8 114158659.83308  21922970.794 8  92763263.47308
C27  25288877.382 8 132893946.35808  25288884.465 9  99239014.29909  25288883.767 8 131685853.63308  25288884.070 8 107005544.14608
C32  22927709.339 8 120485926.70008  22927716.485 9  89973283.84209  22927715.789 8 119390630.45208  22927716.128 8  97014669.79308
C33  22271250.079 8 117036208.91808  22271257.176 9  87397196.63309  22271256.474 8 115972276.66708  22271256.857 8  94236975.71008
> 2022 12 01 01 09  0.0000000  0 16
C01                                                                  37969650.060 8 197717931.32008  37969650.387 8 160662016.19008
C02                                                                  38534447.689 8 200658981.25708  38534448.118 8 163051860.17908
C03                                                                  37632610.645 8 195962878.86908  37632610.985 8 159235892.31108
C04                                                                  38969848.969 8 202926230.68208  38969849.305 8 164894184.23708
C05                                                                  39896520.622 8 207751654.46408  39896521.074 8 168815236.51508
C06  39787155.672 8 209082916.02208  39787162.754 9 156133372.52609  39787162.121 8 207182192.66608  39787162.458 8 168352504.59808
C07  35984123.367 8 189097844.39108  35984130.478 9 141209456.89109  35984129.840 8 187378805.54608  35984130.162 8 152260630.39508
C08  39941879.907 8 209895995.77708  39941887.081 9 156740543.96609  39941886.475 8 207987883.69808  39941886.762 8 169007193.74508
C09  36861349.023 8 193707697.69708  36861356.202 9 144651879.07009  36861355.545 8 191946750.87608  36861355.848 8 155972459.34008
C10  36204524.119 8 190256060.24508  36204531.226 9 142074356.84609  36204530.539 8 188526490.97608  36204530.898 8 153193219.00508
C11  26438913.355 8 138937434.35308  26438920.451 9 103752006.61109  26438919.984 8 137674396.14208  26438920.360 8 111871732.85808
C25  22881430.165 8 120242728.08508  22881437.322 9  89791674.48709  22881436.584 8 119149644.45508  22881436.923 8  96818847.30908
C26  21926949.027 8 115226895.15808  21926956.230 9  86046085.71209  21926955.503 8 114179411.29808  21926955.914 8  92780125.73908
C27  25302834.379 8 132967290.90208  25302841.475 9  99293784.57909  25302840.832 8 131758531.41208  25302841.126 8 107064600.80008
C32  22912133.650 8 120404075.99908  22912140.786 9  89912161.56409  22912140.149 8 119309523.83908  22912140.469 8  96948764.03008
C33  22273416.560 8 117047593.74308  22273423.642 9  87405698.29009  22273422.953 8 115983557.99708  22273423.323 8  94246142.71908
> 2022 12 01 01 09 30.0000000  0 16
C01                                                                  37969556.058 8 197717441.93508  37969556.389 8 160661618.52408
C02                                                                  38534425.273 8 200658863.55608  38534425.523 8 163051764.53408
C03                                                                  37632262.681 8 195961067.09008  37632263.084 8 159234420.09308
C04                                                                  38969801.364 8 202925982.99308  38969801.723 8 164893982.97108
C05                                                                  39896516.437 8 207751632.45808  39896516.746 8 168815218.63408
C06  39797771.326 8 209138702.07008  39797778.497 9 156175030.93909  39797777.838 8 207237471.56908  39797778.204 8 168397423.23508
C07  35984654.512 8 189100635.72508  35984661.623 9 141211541.32909  35984660.953 8 187381571.49408  35984661.336 8 152262877.95608
C08  39930772.934 8 209837628.14708  39930780.086 9 156696957.74909  39930779.381 8 207930046.68408  39930779.783 8 168960196.43508
C09  36859294.560 8 193696901.11108  36859301.656 9 144643816.68009  36859300.964 8 191936052.44108  36859301.331 8 155963765.98608
C10  36208551.021 8 190277221.97208  36208558.162 9 142090159.43409  36208557.490 8 188547460.32608  36208557.836 8 153210258.32108
C11  26454269.405 8 139018130.74308  26454276.473 9 103812266.90209  26454276.009 8 137754358.94608  26454276.365 8 111936709.18908
C25  22871265.393 8 120189311.63208  22871272.484 9  89751785.57609  22871271.822 8 119096713.58908  22871272.099 8  96775836.64408
C26  21930981.031 8 115248083.03908  21930988.132 9  86061907.82909  21930987.471 8 114200406.55608  21930987.801 8  92797186.10808
C27  25316813.712 8 133040752.90808  25316820.807 9  99348642.57109  25316820.059 8 131831325.58708  25316820.466 8 107123752.02708
C32  22896620.297 8 120322552.73808  22896627.411 9  89851283.80609  22896626.838 8 119228741.69208  22896627.120 8  96883121.92008
C33  22275683.150 8 117059504.94108  22275690.247 9  87414593.01609  22275689.605 8 115995360.91308  22275689.922 8  94255733.55208
> 2022 12 01 01 10  0.0000000  0 16
C01                                                                  37969462.118 8 197716952.39508  37969462.386 8 160661220.73208
C02                                                                  38534402.320 8 200658744.80208  38534402.664 8 163051668.04108
C03                                                                  37631914.082 8 195959251.86308  37631914.485 8 159232945.07108
C04                                                                  38969753.876 8 202925735.41808  38969754.207 8 164893781.79308
C05                                                                  39896512.332 8 207751610.31508  39896512.574 8 168815200.64208
C06  39808387.471 8 209194489.92508  39808394.574 9 156216690.69609  39808393.890 8 207292752.25708  39808394.270 8 168442343.31808
C07  35985181.081 8 189103402.99308  35985188.221 9 141213607.79009  35985187.620 8 187384313.59408  35985187.944 8 152265106.13608
C08  39919664.009 8 209779250.08508  39919671.112 9 156653363.73809  39919670.524 8 207872199.33108  39919670.802 8 168913190.72008
C09  36857253.038 8 193686172.85008  36857260.127 9 144635805.31609  36857259.467 8 191925421.71408  36857259.816 8 155955127.64808
C10  36212604.528 8 190298522.81708  36212611.554 9 142106065.90809  36212610.877 8 188568567.52608  36212611.255 8 153227409.65008
C11  26469618.390 8 139098790.14908  26469625.441 9 103872499.57209  26469624.948 8 137834285.10008  26469625.313 8 112001655.72908
C25  22861128.500 8 120136042.02808  22861135.602 9  89712006.32609  22861134.935 8 119043928.23608  22861135.231 8  96732944.22508
C26  21935059.809 8 115269517.33608  21935066.910 9  86077913.95709  21935066.284 8 114221646.00008  21935066.643 8  92814444.88808
C27  25330815.366 8 133114332.19908  25330822.490 9  99403588.14209  25330821.849 8 131904235.97508  25330822.114 8 107182997.69308
C32  22881169.586 8 120241358.99908  22881176.740 9  89790652.11809  22881176.094 8 119148286.08008  22881176.430 8  96817745.13908
C33  22278049.816 8 117071941.90908  22278056.933 9  87423880.35809  22278056.233 8 116007684.81508  22278056.616 8  94265747.72908
> 2022 12 01 01 10 30.0000000  0 16
C01                                                                  37969368.021 8 197716462.74308  37969368.348 8 160660822.84708
C02                                                                  38534379.313 8 200658625.03508  38534379.707 8 163051570.71208
C03                                                                  37631564.871 8 195957433.23408  37631565.220 8 159231467.28208
C04                                                                  38969706.307 8 202925487.97508  38969706.701 8 164893580.72908
C05                                                                  39896507.914 8 207751588.07008  39896508.259 8 168815182.56608
C06  39819003.768 8 209250279.05208  39819010.884 9 156258351.40809  39819010.269 8 207348034.21108  39819010.559 8 168487264.43308
C07  35985703.092 8 189106146.17608  35985710.233 9 141215656.27409  35985709.557 8 187387031.83508  35985709.945 8 152267314.92808
C08  39908553.160 8 209720862.22308  39908560.257 9 156609762.41609  39908559.584 8 207814342.26808  39908559.958 8 168866177.11608
C09  36855224.369 8 193675512.62608  36855231.547 9 144627844.75909  36855230.857 8 191914858.40208  36855231.232 8 155946544.09308
C10  36216684.424 8 190319962.90908  36216691.492 9 142122076.37009  36216690.884 8 188589812.71508  36216691.179 8 153244673.10508
C11  26484959.870 8 139179410.24608  26484966.937 9 103932702.89409  26484966.396 8 137914172.30508  26484966.835 8 112066570.62908
C25  22851019.792 8 120082920.24208  22851026.865 9  89672337.46109  22851026.170 8 118991289.36508  22851026.503 8  96690170.82908
C26  21939185.634 8 115291198.50808  21939192.713 9  86094104.44409  21939192.103 8 114243130.07108  21939192.428 8  92831902.45808
C27  25344839.347 8 133188028.64408  25344846.435 9  99458621.20109  25344845.689 8 131977262.45608  25344846.093 8 107242337.68808
C32  22865782.092 8 120160496.93608  22865789.229 9  89730268.10509  22865788.624 8 119068159.11008  22865788.900 8  96752635.41308
C33  22280516.438 8 117084904.07508  22280523.552 9  87433559.89909  22280522.919 8 116020529.15008  22280523.220 8  94276184.80108
> 2022 12 01 01 11  0.0000000  0 16
C01                                                                  37969273.934 8 197715972.95708  37969274.270 8 160660424.85708
C02                                                                  38534356.128 8 200658504.22608  38534356.504 8 163051472.55108
C03                                                                  37631214.931 8 195955611.18808  37631215.311 8 159229986.71908
C04                                                                  38969658.823 8 202925240.67008  38969659.163 8 164893379.76808
C05                                                                  39896503.728 8 207751565.72208  39896504.019 8 168815164.39508
C06  39829620.235 8 209306068.85908  39829627.311 9 156300012.63109  39829626.710 8 207403316.83808  39829627.017 8 168532186.09608
C07  35986220.516 8 189108865.22308  35986227.624 9 141217686.73509  35986227.036 8 187389726.16008  35986227.352 8 152269504.28908
C08  39897440.572 8 209662465.15108  39897447.666 9 156566154.21009  39897446.967 8 207756476.07708  39897447.351 8 168819156.09508
C09  36853208.797 8 193664920.08208  36853215.882 9 144619934.74509  36853215.189 8 191904362.16208  36853215.524 8 155938015.03308
C10  36220790.825 8 190341542.34608  36220797.903 9 142138190.88209  36220797.233 8 188611195.97408  36220797.599 8 153262048.75108
C11  26500293.365 8 139259988.68108  26500300.523 9 103992875.10009  26500300.059 8 137994018.22308  26500300.407 8 112131451.97708
C25  22840939.319 8 120029947.20708  22840946.417 9  89632779.67509  22840945.760 8 118938797.89408  22840946.055 8  96647517.20408
C26  21943358.448 8 115313126.94808  21943365.572 9  86110479.57809  21943364.936 8 114264859.16008  21943365.259 8  92849559.12508
C27  25358885.581 8 133261842.07408  25358892.674 9  99513741.61809  25358891.914 8 132050404.85608  25358892.316 8 107301771.87708
C32  22850458.058 8 120079968.60608  22850465.200 9  89670133.31409  22850464.552 8 118988362.85208  22850464.865 8  96687794.41608
C33  22283082.848 8 117098390.81408  22283089.988 9  87443631.16509  22283089.273 8 116033893.28408  22283089.647 8  94287044.25808
> 2022 12 01 01 11 30.0000000  0 16
C01                                                                  37969179.887 8 197715483.03508  37969180.223 8 160660026.75608
C02                                                                  38534332.786 8 200658382.39208  38534333.055 8 163051373.54508
C03                                                                  37630864.400 8 195953785.72708  37630864.754 8 159228503.38708
C04                                                                  38969611.374 8 202924993.48308  38969611.723 8 164893178.90908
C05                                                                  39896499.261 8 207751543.23708  39896499.669 8 168815146.13208
C06  39840236.718 8 209361858.78408  39840243.794 9 156341673.93509  39840243.209 8 207458599.57908  39840243.503 8 168577107.85208
C07  35986733.358 8 189111560.08408  35986740.481 9 141219699.12909  35986739.855 8 187392396.51808  35986740.170 8 152271674.17508
C08  39886326.342 8 209604059.45108  39886333.455 9 156522539.56309  39886332.776 8 207698601.34008  39886333.130 8 168772128.13108
C09  36851205.890 8 193654394.90308  36851212.994 9 144612075.02909  36851212.331 8 191893932.66208  36851212.671 8 155929540.21208
C10  36224923.766 8 190363261.21108  36224930.897 9 142154409.51709  36224930.237 8 188632717.39308  36224930.547 8 153279536.67408
C11  26515618.636 8 139340523.09508  26515625.687 9 104053014.43509  26515625.280 8 138073820.52708  26515625.576 8 112196297.88308
C25  22830887.365 8 119977123.86508  22830894.506 9  89593333.67209  22830893.732 8 118886454.74908  22830894.115 8  96604984.11008
C26  21947578.436 8 115335303.06008  21947585.528 9  86127039.66209  21947584.972 8 114286833.67108  21947585.246 8  92867415.21808
C27  25372954.040 8 133335772.31208  25372961.141 9  99568949.26409  25372960.462 8 132123663.00008  25372960.779 8 107361300.12308
C32  22835197.942 8 119999776.09508  22835205.077 9  89610249.30109  22835204.425 8 118908899.36108  22835204.751 8  96623223.82508
C33  22285749.015 8 117112401.48008  22285756.111 9  87454093.67709  22285755.514 8 116047776.58508  22285755.817 8  94298325.57608
> 2022 12 01 01 12  0.0000000  0 16
C01                                                                  37969085.799 8 197714992.97808  37969086.086 8 160659628.54508
C02                                                                  38534309.060 8 200658259.50908  38534309.516 8 163051273.69308
C03                                                                  37630513.266 8 195951956.85908  37630513.539 8 159227017.28208
C04                                                                  38969563.979 8 202924746.41708  38969564.302 8 164892978.14908
C05                                                                  39896495.094 8 207751520.63208  39896495.345 8 168815127.76308
C06  39850853.048 8 209417648.24408  39850860.182 9 156383334.89909  39850859.530 8 207513881.86308  39850859.876 8 168622029.23508
C07  35987241.573 8 189114230.71708  35987248.686 9 141221693.43209  35987248.019 8 187395042.86308  35987248.374 8 152273824.54608
C08  39875210.532 8 209545645.72808  39875217.660 9 156478918.92909  39875216.998 8 207640718.64908  39875217.368 8 168725093.70508
C09  36849215.861 8 193643936.73008  36849222.887 9 144604265.35909  36849222.249 8 191883569.57108  36849222.554 8 155921119.35208
C10  36229083.271 8 190385119.60008  36229090.411 9 142170732.34009  36229089.759 8 188654377.07508  36229090.061 8 153297136.93708
C11  26530934.976 8 139421011.15608  26530942.068 9 104113119.15709  26530941.647 8 138153576.89308  26530941.948 8 112261106.46508
C25  22820864.078 8 119924451.16308  22820871.228 9  89554000.16009  22820870.483 8 118834260.87508  22820870.835 8  96562572.31708
C26  21951845.643 8 115357727.25408  21951852.751 9  86143785.00209  21951852.085 8 114309054.01208  21951852.435 8  92885471.06108
C27  25387044.710 8 133409819.18508  25387051.813 9  99624244.01109  25387051.068 8 132197036.72808  25387051.425 8 107420922.28908
C32  22820002.135 8 119919921.48808  22820009.248 9  89550617.61109  22820008.564 8 118829770.69708  22820008.937 8  96558925.30508
C33  22288514.743 8 117126935.41908  22288521.839 9  87464946.94309  22288521.212 8 116062178.39508  22288521.523 8  94310028.22608
> 2022 12 01 01 12 30.0000000  0 16
C01                                                                  37968991.596 8 197714502.84108  37968991.985 8 160659230.26508
C02                                                                  38534285.400 8 200658135.63208  38534285.723 8 163051173.04008
C03                                                                  37630161.340 8 195950124.65008  37630161.694 8 159225528.45908
C04                                                                  38969516.522 8 202924499.52708  38969516.889 8 164892777.52708
C05                                                                  39896490.582 8 207751497.95708  39896490.989 8 168815109.33208
C06  39861469.291 8 209473436.73108  39861476.364 9 156424995.13009  39861475.730 8 207569163.18108  39861476.079 8 168666949.83108
C07  35987745.113 8 189116877.13508  35987752.270 9 141223669.65209  35987751.541 8 187397665.21908  35987751.987 8 152275955.42108
C08  39864093.376 8 209487224.63408  39864100.516 9 156435292.78209  39864099.891 8 207582828.65408  39864100.208 8 168678053.33908
C09  36847238.301 8 193633545.30808  36847245.416 9 144596505.52909  36847244.768 8 191873272.61508  36847245.141 8 155912752.23308
C10  36233269.365 8 190407117.66608  36233276.502 9 142187159.46409  36233275.832 8 188676175.15908  36233276.152 8 153314849.66408
C11  26546242.079 8 139501450.58108  26546249.197 9 104173187.55609  26546248.754 8 138233285.06708  26546249.087 8 112325875.88508
C25  22810869.734 8 119871930.10708  22810876.813 9  89514779.89109  22810876.066 8 118782217.27408  22810876.414 8  96520282.62608
C26  21956160.128 8 115380399.99208  21956167.229 9  86160715.93909  21956166.601 8 114331520.63508  21956166.891 8  92903727.02808
C27  25401157.512 8 133483982.58908  25401164.608 9  99679625.77109  25401163.969 8 132270525.92108  25401164.261 8 107480638.27208
C32  22804870.997 8 119840406.89508  22804878.121 9  89491239.83009  22804877.434 8 118750978.96008  22804877.782 8  96494900.56208
C33  22291379.872 8 117141992.00708  22291387.018 9  87476190.49609  22291386.288 8 116077098.10808  22291386.714 8  94322151.71208
> 2022 12 01 01 13  0.0000000  0 16
C01                                                                  37968897.526 8 197714012.56308  37968897.799 8 160658831.87208
C02                                                                  38534261.253 8 200658010.69908  38534261.688 8 163051071.52708
C03                                                                  37629808.793 8 195948289.03408  37629809.187 8 159224036.86908
C04                                                                  38969469.136 8 202924252.74808  38969469.463 8 164892576.99708
C05                                                                  39896486.231 8 207751475.14008  39896486.531 8 168815090.78708
C06  39872085.108 8 209529223.60308  39872092.255 9 156466654.15709  39872091.590 8 207624442.90108  39872091.948 8 168711869.13008
C07  35988244.119 8 189119499.23408  35988251.221 9 141225627.71409  35988250.588 8 187400263.47408  35988250.941 8 152278066.71808
C08  39852974.926 8 209428796.69508  39852982.027 9 156391661.53009  39852981.434 8 207524931.87908  39852981.728 8 168631007.46708
C09  36845273.539 8 193623220.22708  36845280.628 9 144588795.24109  36845279.972 8 191863041.39908  36845280.307 8 155904438.53208
C10  36237482.068 8 190429255.43308  36237489.186 9 142203690.91309  36237488.530 8 188698111.67508  36237488.840 8 153332674.87908
C11  26561539.509 8 139581838.98008  26561546.622 9 104233217.85309  26561546.116 8 138312942.67608  26561546.455 8 112390604.21808
C25  22800904.278 8 119819561.60208  22800911.374 9  89475673.54109  22800910.626 8 118730324.83508  22800910.998 8  96478115.76808
C26  21960521.963 8 115403321.60808  21960529.045 9  86177832.73209  21960528.370 8 114354233.87408  21960528.736 8  92922183.39608
C27  25415292.485 8 133558262.27208  25415299.576 9  99735094.36509  25415298.871 8 132344130.33608  25415299.197 8 107540447.88808
C32  22789804.917 8 119761234.31308  22789812.049 9  89432117.44509  22789811.420 8 118672526.12408  22789811.753 8  96431151.20408
C33  22294344.426 8 117157570.48508  22294351.496 9  87487823.77809  22294350.858 8 116092534.96708  22294351.166 8  94334695.42608
> 2022 12 01 01 13 30.0000000  0 16
C01                                                                  37968803.300 8 197713522.12108  37968803.627 8 160658433.35608
C02                                                                  38534237.071 8 200657884.72008  38534237.568 8 163050969.15508
C03                                                                  37629455.692 8 195946450.01208  37629456.027 8 159222542.52408
C04                                                                  38969421.706 8 202924006.05708  38969422.082 8 164892376.55908
C05                                                                  39896481.795 8 207751452.16908  39896482.207 8 168815072.13208
C06  39882700.663 8 209585008.28308  39882707.728 9 156508311.55109  39882707.119 8 207679720.44408  39882707.445 8 168756786.67508
C07  35988738.470 8 189122096.97208  35988745.579 9 141227567.58309  35988744.872 8 187402837.59208  35988745.296 8 152280158.40508
C08  39841855.230 8 209370362.50108  39841862.389 9 156348025.61209  39841861.725 8 207467028.90908  39841862.078 8 168583956.56908
C09  36843321.330 8 193612961.14908  36843328.434 9 144581134.24309  36843327.845 8 191852875.58808  36843328.084 8 155896177.98208
C10  36241721.266 8 190451532.97608  36241728.435 9 142220326.74809  36241727.821 8 188720186.69708  36241728.100 8 153350612.65008
C11  26576826.728 8 139662174.01208  26576833.849 9 104293208.30209  26576833.364 8 138392547.40508  26576833.754 8 112455289.59008
C25  22790968.102 8 119767346.59808  22790975.191 9  89436681.81809  22790974.493 8 118678584.50608  22790974.811 8  96436072.51708
C26  21964931.263 8 115426492.50408  21964938.291 9  86195135.67609  21964937.680 8 114377194.11808  21964938.023 8  92940840.48808
C27  25429449.488 8 133632658.05408  25429456.611 9  99790649.65709  25429455.956 8 132417849.79108  25429456.295 8 107600350.99008
C32  22774804.416 8 119682405.78208  22774811.511 9  89373251.98909  22774810.771 8 118594414.21208  22774811.177 8  96367678.88408
C33  22297408.064 8 117173670.13508  22297415.181 9  87499846.24309  22297414.478 8 116108488.25508  22297414.839 8  94347658.78708
> 2022 12 01 01 14  0.0000000  0 16
C01                                                                  37968709.029 8 197713031.62008  37968709.441 8 160658034.77608
C02                                                                  38534212.723 8 200657757.75008  38534213.094 8 163050865.97808
C03                                                                  37629101.812 8 195944607.67808  37629102.201 8 159221045.46908
C04                                                                  38969374.450 8 202923759.57108  38969374.772 8 164892176.25808
C05                                                                  39896477.391 8 207751429.12808  39896477.758 8 168815053.40408
C06  39893315.582 8 209640790.28608  39893322.718 9 156549966.94309  39893322.062 8 207734995.33808  39893322.386 8 168801702.04308
C07  35989228.137 8 189124670.39708  35989235.299 9 141229489.29809  35989234.595 8 187405387.61808  35989234.984 8 152282230.50408
C08  39830734.511 8 209311922.74508  39830741.651 9 156304385.53209  39830741.041 8 207409120.42208  39830741.345 8 168536901.17208
C09  36841381.510 8 193602767.81908  36841388.697 9 144573522.34209  36841387.984 8 191842774.92908  36841388.345 8 155887970.36408
C10  36245987.220 8 190473950.47608  36245994.348 9 142237067.08709  36245993.690 8 188742400.40408  36245994.025 8 153368663.10108
C11  26592103.423 8 139742453.44508  26592110.514 9 104353157.23309  26592110.054 8 138472097.04408  26592110.409 8 112519930.17908
C25  22781061.353 8 119715286.15508  22781068.427 9  89397805.51409  22781067.680 8 118626997.32508  22781068.029 8  96394153.70508
C26  21969388.052 8 115449913.15708  21969395.151 9  86212625.12709  21969394.497 8 114400401.86008  21969394.831 8  92959698.67108
C27  25443628.640 8 133707169.83208  25443635.722 9  99846291.57109  25443635.011 8 132491684.19108  25443635.383 8 107660347.48508
C32  22759869.690 8 119603923.43008  22759876.783 9  89314645.03809  22759876.111 8 118516645.33408  22759876.476 8  96304485.29608
C33  22300570.744 8 117190290.30508  22300577.859 9  87512257.41109  22300577.257 8 116124957.33608  22300577.577 8  94361041.25808
